timestamp_ms;time_s;roll;pitch;rate_roll;rate_pitch;rate_yaw;error_angle_roll;error_angle_pitch;error_rate_roll;error_rate_pitch;error_rate_yaw;motor1;motor2;motor3;motor4;altitude;velocity;lidar_raw;armed
163896;0,00;1.36;1.15;0.04;-0.20;0.05;-1.36;-1.15;-2.76;-2.10;-0.05;0;0;0;0;0.2;-6.5;0.2;0t
164114;0,22;-0.31;0.26;0.65;-17.17;-21.80;0.31;-0.26;-0.03;16.64;21.80;886;527;914;473;0.3;-11.2;0.3;1t
164497;0,60;-0.55;-0.93;-2.58;3.53;-8.86;0.55;0.93;3.69;-1.66;8.86;725;297;675;303;21.3;59.0;21.3;1t
164715;0,82;-1.88;-1.20;4.38;2.18;21.05;1.88;1.20;-0.61;0.21;-21.05;218;602;205;621;34.7;67.8;34.7;1t
164872;0,98;-1.16;-0.87;0.47;3.71;-15.46;1.16;0.87;1.85;-1.98;15.46;672;254;731;348;45.4;52.5;45.4;1t
165315;1,42;-0.30;-0.61;-3.99;-0.93;-14.97;0.30;0.61;4.58;2.16;14.97;681;270;759;371;68.3;47.8;68.3;1t
165472;1,58;-0.14;-0.74;-0.08;-2.94;-9.05;0.14;0.74;0.37;4.42;9.05;845;502;946;490;79.5;24.1;79.5;1t
165915;2,02;-0.72;-0.84;-0.08;0.60;-18.32;0.72;0.84;1.53;1.08;18.32;668;296;703;276;100.8;51.2;100.8;1t
166072;2,18;-0.56;-0.80;1.38;-3.37;5.72;0.56;0.80;-0.26;4.97;-5.72;223;649;248;623;110.9;12.2;110.9;1t
166515;2,62;-0.75;-1.42;7.98;-22.17;4.02;0.75;-14.58;-6.48;-6.99;-4.02;449;934;472;788;110.9;-32.9;110.9;1t
166672;2,78;-0.38;-4.74;-2.95;-27.60;-0.50;0.38;-11.26;3.71;5.08;0.50;392;302;264;242;112.6;53.5;112.6;1t
167115;3,22;0.08;-2.59;-2.77;-13.69;15.67;-0.08;-13.41;2.60;-13.12;-15.67;100;513;106;487;112.6;37.0;112.6;1t
167273;3,38;0.57;-2.22;-3.38;10.24;-14.97;-0.57;2.22;2.23;-5.80;14.97;501;100;499;143;113.9;47.1;113.9;1t
168172;4,28;-3.56;-0.09;14.14;-3.62;3.89;3.56;0.09;-7.02;3.80;-3.89;275;627;306;682;110.2;-4.0;110.2;1t
168472;4,58;-0.11;-0.55;8.65;0.60;2.86;0.11;0.55;-8.42;0.50;-2.86;198;509;143;467;112.5;18.0;112.5;1t
168697;4,80;0.63;-0.85;34.59;-1.97;-3.55;15.37;0.85;-3.85;3.66;3.55;874;564;816;546;110.9;-56.5;110.9;1t
169073;5,18;2.13;-0.62;-10.88;1.63;0.96;-2.13;0.62;6.63;-0.38;-0.96;509;605;498;634;109.7;-17.3;109.7;1t
169297;5,40;0.34;-0.48;-7.10;0.29;-0.56;-0.34;0.48;6.42;0.67;0.56;577;617;633;658;109.2;-26.3;109.2;1t
169673;5,78;-1.18;-0.88;3.15;-1.36;-16.00;1.18;0.88;-0.80;3.12;16.00;833;425;698;306;109.6;-12.0;109.6;1t
169898;6,00;-0.93;-0.92;0.65;0.05;15.37;0.93;0.92;1.21;1.79;-15.37;476;901;524;899;108.0;-35.7;108.0;1t
170115;6,22;-0.86;-2.84;5.11;-2.15;-8.74;0.86;2.84;-3.40;7.83;8.74;869;367;753;455;107.3;-20.7;107.3;1t
170273;6,38;-0.45;-1.53;2.06;8.71;15.00;0.45;1.53;-1.15;-5.66;-15.00;345;736;361;769;106.5;-12.9;106.5;1t
170498;6,60;-0.97;-0.99;3.03;3.59;-12.34;0.97;0.99;-1.08;-1.60;12.34;539;100;461;121;106.5;33.2;106.5;1t
170873;6,98;-0.93;-2.93;2.91;-28.21;-19.85;0.93;-13.07;-1.04;2.07;19.85;727;311;709;325;106.9;-7.7;106.9;1t
171098;7,20;-0.64;-3.53;-3.50;9.26;19.21;0.64;3.53;4.78;-2.20;-19.21;301;659;311;753;106.2;-6.5;106.2;1t
171473;7,58;-1.12;-0.91;2.67;2.24;-2.21;1.12;0.91;-0.42;-0.42;2.21;652;563;693;588;104.4;-25.1;104.4;1t
171698;7,80;-2.77;-0.56;-29.81;2.24;-1.17;-13.23;0.56;3.35;-1.12;1.17;593;502;582;552;104.6;-14.9;104.6;1t
171923;8,03;-4.06;-0.54;12.25;2.06;-0.07;4.06;0.54;-4.12;-0.99;0.07;593;680;531;670;104.1;-23.1;104.1;1t
172073;8,18;-1.63;-0.25;5.90;1.33;-8.86;1.63;0.25;-2.64;-0.84;8.86;909;522;891;478;101.2;-33.2;101.2;1t
172298;8,40;-0.73;-0.39;6.21;-0.26;-2.15;0.73;0.39;-4.74;1.03;2.15;333;278;361;228;100.9;27.5;100.9;1t
172523;8,63;-0.32;-0.79;4.86;0.66;-56.23;0.32;0.79;-4.22;0.91;16.23;772;370;763;366;100.8;-15.4;100.8;1t
172898;9,00;-0.19;-0.82;-3.38;0.41;10.85;0.19;-15.18;3.75;-30.77;-10.85;275;630;307;752;100.4;-2.7;100.4;1t
173123;9,23;-0.50;-4.03;4.86;-4.41;-8.68;0.50;4.03;-3.86;12.47;8.68;551;103;449;100;101.4;38.8;101.4;1t
173273;9,38;-0.44;-2.33;-0.93;9.45;-8.92;0.44;2.33;1.81;-4.78;8.92;858;459;868;468;99.5;-28.0;99.5;1t
173498;9,60;-2.48;-1.14;-32.80;3.65;15.12;-13.52;1.14;5.75;-1.38;-15.12;380;779;395;796;99.3;-12.7;99.3;1t
173723;9,83;-5.10;-0.42;-24.68;2.49;-12.40;-10.90;0.42;2.89;-1.65;12.40;481;100;519;105;101.4;53.7;101.4;1t
174098;10,20;-1.52;-0.74;13.71;1.08;-11.37;1.52;0.74;-10.68;0.40;11.37;669;282;645;231;97.6;0.7;97.6;1t
174323;10,43;-0.15;-0.48;8.65;0.35;-0.87;0.15;0.48;-8.34;0.61;0.87;509;582;595;600;97.2;-14.2;97.2;1t
174698;10,80;0.01;-0.50;-2.28;4.20;49.37;-0.01;0.50;2.25;-3.19;-49.37;143;563;157;537;97.4;18.5;97.4;1t
174923;11,03;-0.24;-0.54;1.02;-2.27;11.10;0.24;0.54;-0.54;3.34;-11.10;360;775;365;750;96.0;-13.4;96.0;1t
175298;11,40;1.00;-0.87;-3.93;-5.57;12.50;15.00;0.87;33.93;7.31;-12.50;419;862;470;827;94.9;-22.6;94.9;1t
175666;11,77;1.61;-0.81;-7.59;2.85;-5.08;-1.61;0.81;4.37;-1.23;5.08;731;333;685;283;95.2;-3.3;95.2;1t
175748;11,85;-0.37;-0.90;-6.67;-0.14;-14.78;0.37;0.90;7.41;1.95;14.78;688;324;784;348;94.3;-7.5;94.3;1t
175899;12,00;-0.72;-1.93;-8.44;-35.17;11.58;0.72;-14.07;9.87;7.03;-11.58;100;505;181;495;94.2;36.5;94.2;1t
176123;12,23;-1.29;-3.84;1.99;10.18;-14.66;1.29;3.84;0.59;-2.50;14.66;910;472;890;528;93.8;-39.5;93.8;1t
176723;12,83;-1.02;-0.83;-0.87;0.29;-9.11;1.02;0.83;2.91;1.36;9.11;891;499;909;501;92.5;-44.2;92.5;1t
176873;12,98;-1.12;-0.59;-0.20;-2.03;15.31;1.12;0.59;2.45;3.21;-15.31;480;904;498;875;91.3;-27.4;91.3;1t
177173;13,28;-0.90;-3.26;-3.56;-26.81;-15.76;0.90;3.26;5.36;33.33;15.76;854;538;925;441;91.3;-23.9;91.3;1t
177323;13,43;-0.70;-2.28;-1.61;8.78;15.19;0.70;2.28;3.01;-4.22;-15.19;307;704;346;749;91.1;-6.0;91.1;1t
177473;13,58;-0.45;-0.77;-4.11;7.55;-15.88;0.45;0.77;5.02;-6.02;15.88;913;496;887;504;90.7;-34.8;90.7;1t
177923;14,03;0.52;-0.06;-2.03;2.98;3.47;-0.52;0.06;1.00;-2.85;-3.47;482;809;491;887;94.5;27.4;94.5;1t
178074;14,18;-0.05;-0.49;-0.93;1.39;-16.25;0.05;0.49;1.04;-0.40;16.25;470;105;530;100;106.9;86.6;106.9;1t
178524;14,63;-0.61;-0.65;6.82;2.18;-14.30;0.61;0.65;-5.59;-0.88;14.30;544;142;456;100;126.6;79.7;126.6;1t
178673;14,78;-0.09;-0.82;2.91;-1.17;-0.01;0.09;0.82;-2.72;2.81;0.01;301;424;333;396;135.0;71.3;135.0;1t
179123;15,23;-0.44;-1.01;1.26;1.21;-9.84;0.44;1.01;-0.38;0.81;9.84;478;102;522;100;155.0;82.5;155.0;1t
179274;15,38;0.05;-1.67;-2.89;-30.23;15.43;-0.05;-14.33;2.79;1.56;-15.43;268;706;332;694;160.3;1.5;160.3;1t
179874;15,98;-0.01;-1.31;-0.93;10.00;-14.48;0.01;1.31;0.96;-7.37;14.48;588;162;514;140;154.8;21.9;154.8;1t
180099;16,20;-0.07;-0.96;0.10;1.94;14.76;0.07;0.96;0.03;-0.01;-14.76;498;838;454;913;155.0;-20.5;155.0;1t
180474;16,58;-1.01;-0.48;3.76;0.84;12.38;1.01;0.48;-1.75;0.12;-12.38;493;901;507;899;155.7;-37.0;155.7;1t
180699;16,80;-0.61;-0.76;-2.28;0.72;-16.25;0.61;0.76;3.51;0.79;16.25;756;358;774;371;155.3;-14.2;155.3;1t
181299;17,40;-0.54;-0.92;5.60;-0.56;-1.72;0.54;0.92;-4.51;2.40;1.72;717;685;702;633;153.9;-26.7;153.9;1t
181674;17,78;-0.26;-5.21;1.51;-7.70;-9.29;0.26;5.21;-0.98;18.12;9.29;855;344;722;433;154.9;-13.8;154.9;1t
181899;18,00;-0.26;-3.39;4.62;10.36;10.67;0.26;3.39;-4.09;-3.57;-10.67;339;718;286;707;153.0;-0.6;153.0;1t
182274;18,38;0.25;-0.57;-1.67;1.02;10.06;-0.25;0.57;1.16;0.11;-10.06;360;782;398;777;150.7;-6.8;150.7;1t
182499;18,60;-0.43;-0.59;-1.30;-0.50;-27.11;0.43;0.59;2.16;1.68;-12.89;469;886;531;914;150.5;-39.6;150.5;1t
182874;18,98;-0.61;-0.68;0.41;2.00;-13.99;0.61;0.68;0.82;-0.64;13.99;512;114;562;160;150.8;32.5;150.8;1t
183099;19,20;-2.52;-0.61;-31.76;1.15;11.22;2.52;0.61;36.80;0.07;-11.22;414;817;475;873;151.1;-16.7;151.1;1t
183474;19,58;-1.28;-0.71;7.00;-0.62;20.68;1.28;0.71;-4.43;2.04;-20.68;141;556;100;444;149.4;96.8;149.4;1t
183698;19,80;-0.71;-0.92;2.42;0.84;-5.57;0.71;0.92;-1.01;0.99;5.57;884;514;916;486;149.7;-26.1;149.7;1t
183923;20,03;-0.27;-0.81;0.77;-0.32;9.81;0.27;0.81;-0.24;1.95;-9.81;100;487;142;513;151.9;57.0;151.9;1t
184074;20,18;0.34;-0.68;0.35;4.81;-12.28;-0.34;0.68;-1.03;-3.45;12.28;920;530;880;470;151.0;-58.8;151.0;1t
184299;20,40;-2.29;-0.64;-27.18;2.00;10.06;-13.71;0.64;-0.23;-0.71;-10.06;100;492;109;508;152.4;37.0;152.4;1t
184524;20,63;-3.60;-0.89;15.48;-2.52;-3.55;3.60;0.89;-8.28;4.30;3.55;498;313;500;258;153.2;13.3;153.2;1t
184674;20,78;-1.49;-0.89;9.99;-0.81;-4.35;1.49;0.89;-7.02;2.60;4.35;796;580;857;567;149.6;-25.0;149.6;1t
184899;21,00;-0.02;-0.55;4.56;3.53;15.25;0.02;0.55;-4.52;-2.42;-15.25;482;914;518;886;148.6;-73.5;148.6;1t
185124;21,23;-0.58;-2.30;-1.79;-28.15;-8.19;0.58;-13.70;2.95;0.75;8.19;496;100;504;107;150.0;31.7;150.0;1t
185499;21,60;-0.29;-1.14;0.59;4.56;-19.36;0.29;1.14;-0.01;-2.28;19.36;881;466;855;470;148.8;-19.7;148.8;1t
185724;21,83;-0.05;-0.44;1.32;0.84;13.17;0.05;0.44;-1.23;0.05;-13.17;115;484;100;516;147.8;72.0;147.8;1t
186099;22,20;-0.48;-0.63;0.04;-1.42;-10.82;0.48;-15.37;0.91;-29.33;10.82;874;417;812;469;146.2;-15.3;146.2;1t
186324;22,43;-0.46;-4.36;0.22;-25.65;9.69;0.46;-11.64;0.69;2.36;-9.69;525;921;475;879;147.1;-33.7;147.1;1t
186699;22,80;-0.06;-1.20;-2.64;8.23;13.42;0.06;1.20;2.76;-5.83;-13.42;152;593;222;581;143.7;20.6;143.7;1t
186924;23,03;-0.38;-0.33;0.29;5.97;-15.64;0.38;0.33;0.47;-5.31;15.64;517;100;483;144;142.7;48.4;142.7;1t
187299;23,40;-0.37;-0.44;-1.73;-0.50;12.93;0.37;0.44;2.48;1.37;-12.93;112;507;100;493;144.1;36.6;144.1;1t
187524;23,63;-1.05;-0.70;4.44;1.57;-12.83;1.05;0.70;-2.33;-0.17;12.83;823;408;820;435;143.6;-9.8;143.6;1t
188124;24,23;-0.05;-0.93;-2.70;-2.21;13.84;0.05;0.93;2.81;4.07;-13.84;387;788;386;786;142.4;-12.3;142.4;1t
188273;24,38;-0.77;-1.02;-1.91;0.23;-9.11;0.77;1.02;3.44;1.81;9.11;759;355;760;364;142.8;-6.1;142.8;1t
188724;24,83;-0.78;-1.75;-7.28;-23.02;-12.89;0.78;-14.25;8.85;-5.48;12.89;899;493;901;507;140.7;-48.1;140.7;1t
188874;24,98;-0.49;-4.06;2.42;2.98;7.62;0.49;4.06;-1.44;5.14;-7.62;483;881;517;919;141.4;-34.7;141.4;1t
189324;25,43;-0.29;-1.44;0.47;6.46;3.47;0.29;1.44;0.10;-3.57;-3.47;468;920;532;880;141.4;-38.4;141.4;1t
189474;25,58;-1.30;-1.24;2.91;1.08;-11.12;1.30;1.24;-0.30;1.39;11.12;902;490;898;510;141.7;-55.1;141.7;1t
189923;26,03;-0.53;-1.07;-0.45;0.29;-9.90;0.53;1.07;1.50;1.85;9.90;525;150;598;174;141.3;25.6;141.3;1t
190074;26,18;-0.03;-0.81;1.69;1.94;-4.96;0.03;0.81;-1.63;-0.33;4.96;708;392;718;355;141.6;0.1;141.6;1t
190674;26,78;-0.48;-2.24;-0.20;-28.03;12.56;0.48;-13.76;1.17;0.51;-12.56;484;870;476;890;139.9;-19.9;139.9;1t
190899;27,00;-0.07;-5.17;1.08;2.31;-7.64;0.07;5.17;-0.94;8.03;7.64;475;113;525;100;142.0;128.3;142.0;1t
191274;27,38;0.27;-1.71;1.32;5.60;2.31;-0.27;1.71;-1.87;-2.19;-2.31;583;831;598;788;141.1;-51.1;141.1;1t
191499;27,60;0.51;-1.25;1.69;4.01;-11.85;-0.51;1.25;-2.70;-1.52;11.85;712;304;705;314;139.9;-48.1;139.9;1t
191874;27,98;0.33;-0.22;1.93;-3.49;-12.77;-0.33;0.22;-2.60;3.94;12.77;499;121;501;100;128.2;-13.2;128.2;1t
192099;28,20;0.27;0.10;1.93;1.08;-1.11;-0.27;-0.10;-2.48;-1.28;1.11;406;386;409;340;115.5;-35.1;115.5;1t
192474;28,58;-0.24;-0.47;-0.20;1.63;-20.28;0.24;0.47;0.68;-0.69;20.28;917;539;883;461;92.8;-49.8;92.8;1t
192699;28,80;0.21;-0.69;3.76;-5.45;-0.50;-0.21;0.69;-4.18;6.83;0.50;634;652;608;614;85.8;-16.6;85.8;1t
193074;29,18;0.18;-0.72;-2.16;-0.38;-17.84;-0.18;0.72;1.79;1.82;17.84;577;169;540;147;88.3;27.1;88.3;1t
193298;29,40;0.11;-1.03;-1.79;-3.07;4.32;-0.11;1.03;1.56;5.13;-4.32;149;578;182;551;87.9;22.7;87.9;1t
193524;29,63;0.15;-0.91;-2.89;-1.97;44.42;-0.15;0.91;2.58;3.78;-4.42;382;725;409;715;87.0;-2.1;87.0;1t
193673;29,78;-0.02;-1.27;0.41;-3.49;1.88;0.02;1.27;-0.38;6.03;-1.88;227;368;293;333;86.7;31.9;86.7;1t
193899;30,00;-1.63;-1.64;0.90;-0.93;-15.03;1.63;1.64;2.36;4.21;15.03;461;100;539;108;85.6;3.4;85.6;1t
194124;30,23;-1.28;-2.03;38.98;2.67;16.83;17.28;2.03;-4.43;1.39;-16.83;388;836;444;797;78.2;-22.3;78.2;1t
194499;30,60;0.59;-0.53;-13.75;-0.50;-20.46;15.41;0.53;44.58;1.56;20.46;685;325;936;497;65.6;-7.4;65.6;1t
194724;30,83;0.43;-0.66;-16.13;-8.44;4.69;-0.43;0.66;15.28;9.75;-4.69;101;509;219;513;68.3;32.6;68.3;1t
194873;30,98;-0.86;-0.42;0.96;6.46;1.88;0.86;0.42;0.77;-5.61;-1.88;390;454;391;477;69.5;17.1;69.5;1t
195099;31,20;-3.09;-0.16;-25.35;-1.84;6.46;-12.91;0.16;-0.46;2.17;-6.46;100;533;134;497;69.0;32.7;69.0;1t
195323;31,43;-3.77;-0.47;3.70;-4.47;1.15;3.77;0.47;3.84;5.41;-1.15;502;546;573;567;69.3;0.1;69.3;1t
195475;31,58;-1.30;-3.05;10.30;-32.06;9.69;1.30;-12.95;-7.70;6.16;-9.69;100;501;119;499;70.0;35.6;70.0;1t
195699;31,80;0.23;-5.81;-0.14;-19.79;18.18;-0.23;5.81;-0.32;31.41;-18.18;367;886;543;825;70.8;-18.4;70.8;1t
195924;32,03;0.43;-3.63;-0.14;15.37;-8.44;-0.43;3.63;-0.72;-8.11;8.44;875;480;857;452;69.8;-20.3;69.8;1t
196299;32,40;-0.61;-0.78;0.59;7.37;-4.35;0.61;0.78;0.64;-5.81;4.35;881;483;878;476;70.4;-19.7;70.4;1t
196524;32,63;-0.75;-0.17;1.93;4.56;17.57;0.75;0.17;-0.44;-4.23;-17.57;449;812;412;849;70.9;-15.0;70.9;1t
196899;33,00;-2.07;-0.53;8.46;2.73;-2.70;2.07;0.53;-4.33;-1.66;2.70;757;495;643;458;69.8;-9.8;69.8;1t
197124;33,23;-0.82;-0.47;1.32;-0.32;8.65;0.82;0.47;0.32;1.27;-8.65;363;751;363;775;68.9;-3.6;68.9;1t
197724;33,83;-0.39;-0.69;3.89;2.67;-3.98;0.39;0.69;-3.10;-1.30;3.98;726;397;733;421;68.8;-4.6;68.8;1t
198099;34,20;-0.10;-1.26;0.22;2.61;-12.59;0.10;1.26;-0.02;-0.09;12.59;865;494;884;455;68.8;-19.2;68.8;1t
198324;34,43;-0.07;-0.83;-0.51;1.02;4.75;0.07;0.83;0.65;0.63;-4.75;203;634;239;608;69.0;16.5;69.0;1t
198474;34,58;0.07;-0.69;-0.26;2.49;-2.52;-0.07;0.69;0.12;-1.10;2.52;610;364;605;406;68.9;5.5;68.9;1t
198924;35,03;0.30;-3.01;0.10;8.47;3.53;-0.30;3.01;-0.71;-2.45;-3.53;179;488;203;529;69.6;26.4;69.6;1t
199149;35,25;-0.58;-3.07;-0.69;-21.80;8.41;0.58;-12.93;1.85;-4.06;-8.41;228;664;288;652;69.1;10.9;69.1;1t
199524;35,63;-1.21;-2.39;2.67;10.97;-3.31;1.21;2.39;-0.25;-6.20;3.31;676;452;619;458;67.9;-2.9;67.9;1t
199675;35,78;-0.70;-1.34;-1.18;3.65;13.72;0.70;1.34;2.59;-0.96;-13.72;194;565;234;663;67.6;16.6;67.6;1t
200274;36,38;-3.68;-0.84;14.08;2.31;-4.41;3.68;0.84;-6.72;-0.64;4.41;551;186;448;230;68.0;24.9;68.0;1t
200724;36,83;-0.33;-1.44;3.34;0.29;-15.27;0.33;1.44;-2.68;2.58;15.27;838;442;834;430;67.4;-13.3;67.4;1t
200874;36,98;1.65;-1.50;32.76;-2.70;14.09;14.35;1.50;-4.06;5.70;-14.09;413;853;442;802;67.3;-14.5;67.3;1t
201099;37,20;2.50;-1.44;-9.05;0.90;-13.44;-2.50;1.44;4.05;1.98;13.44;876;479;924;521;66.7;-27.1;66.7;1t
201474;37,58;-0.34;-1.44;-4.05;-1.48;-5.93;0.34;1.44;4.73;4.36;5.93;911;505;889;495;66.7;-29.9;66.7;1t
201699;37,80;-1.16;-1.74;-1.12;0.60;-6.79;1.16;1.74;3.44;2.88;6.79;895;510;905;490;66.6;-29.7;66.6;1t
202141;38,25;-3.78;-1.51;7.12;1.51;-9.35;3.78;1.51;0.44;1.50;9.35;892;504;881;469;66.2;-22.1;66.2;1t
202299;38,40;-2.19;-1.50;9.50;1.21;-3.61;2.19;-14.50;-5.12;-30.21;3.61;800;430;708;436;65.7;-7.2;65.7;1t
202674;38,78;0.17;-3.88;2.85;11.71;12.44;-0.17;3.88;-3.18;-3.95;-12.44;378;812;414;780;65.1;-9.0;65.1;1t
202900;39,00;0.59;-2.82;-2.34;-24.49;-4.83;-0.59;-13.18;1.15;-1.87;4.83;547;148;612;215;65.2;24.6;65.2;1t
203350;39,45;-0.50;-2.12;-1.97;-8.25;-2.21;0.50;-13.88;2.96;-19.50;2.21;684;587;742;503;63.9;-12.4;63.9;1t
203499;39,60;-0.72;-3.77;-2.77;10.55;-7.09;0.72;3.77;4.20;-3.01;7.09;656;264;660;252;64.6;11.2;64.6;1t
203875;39,98;-0.29;-0.85;0.77;2.85;-15.15;0.29;0.85;-0.19;-1.15;15.15;877;464;923;536;64.6;17.5;64.6;1t
204099;40,20;0.38;-0.79;6.69;2.37;8.41;-0.38;0.79;-7.46;-0.79;-8.41;493;887;469;875;71.6;33.6;71.6;1t
204324;40,43;0.06;-0.86;-3.25;0.35;-10.33;-0.06;0.86;3.13;1.36;10.33;817;423;877;471;82.9;40.4;82.9;1t
204475;40,58;0.31;-0.75;-1.06;0.35;-0.01;-0.31;0.75;0.44;1.15;0.01;511;620;530;594;94.6;51.7;94.6;1t
204700;40,80;-0.11;-0.85;1.08;-0.07;8.17;0.11;0.85;-0.86;1.78;-8.17;235;636;206;605;105.5;69.9;105.5;1t
204924;41,03;0.05;-0.93;-0.87;0.72;-6.73;-0.05;0.93;0.77;1.15;6.73;605;193;607;218;115.1;73.4;115.1;1t
205074;41,18;-0.23;-0.92;4.44;2.55;-5.81;0.23;0.92;-3.98;-0.72;5.81;683;264;597;216;123.6;68.2;123.6;1t
205299;41,40;0.04;-0.97;-2.52;0.84;4.08;-0.04;0.97;2.44;1.10;-4.08;135;531;177;581;133.0;79.8;133.0;1t
205524;41,63;-0.15;-1.44;-2.70;2.18;-6.79;0.15;1.44;3.00;0.69;6.79;908;452;867;523;142.9;35.4;142.9;1t
205674;41,78;-0.25;-1.58;0.84;-1.60;-7.03;0.25;1.58;-0.33;4.75;7.03;912;533;888;467;153.2;10.5;153.2;1t
205899;42,00;-0.36;-1.55;-2.89;0.72;8.11;0.36;1.55;3.60;2.38;-8.11;410;838;473;844;163.3;35.6;163.3;1t
206125;42,23;-0.69;-1.60;-0.87;1.45;-10.88;0.69;1.60;2.25;1.75;10.88;515;100;485;103;173.0;84.1;173.0;1t
206274;42,38;-1.91;-2.03;4.01;0.05;11.28;1.91;2.03;-0.18;4.00;-11.28;150;574;216;592;178.4;23.2;178.4;1t
206500;42,60;-1.32;-1.85;5.23;0.84;2.18;1.32;-14.15;-2.58;-29.14;-2.18;435;615;391;621;176.5;1.0;176.5;1t
206724;42,83;-0.32;-4.30;1.38;-6.30;-7.46;0.32;4.30;-0.74;14.89;7.46;510;100;490;117;174.8;59.2;174.8;1t
206875;42,98;-0.15;-3.12;-1.61;8.10;11.46;0.15;3.12;1.91;-1.86;-11.46;450;857;550;943;171.7;-28.6;171.7;1t
207100;43,20;-0.17;-2.12;-5.57;5.54;-14.05;-15.83;2.12;-26.09;-1.31;14.05;520;116;480;100;170.9;80.3;170.9;1t
207325;43,43;-3.57;-1.54;-3.13;0.66;14.76;3.57;1.54;10.28;2.43;-14.76;100;539;107;468;171.1;36.6;171.1;1t
207475;43,58;-1.82;-0.86;8.65;4.93;-10.02;1.82;0.86;-5.01;-3.21;10.02;840;474;839;405;169.5;-17.7;169.5;1t
207699;43,80;-0.55;-0.99;7.12;-0.44;3.41;0.55;0.99;-6.02;2.42;-3.41;512;912;496;879;168.6;-28.6;168.6;1t
207992;44,10;0.26;-2.39;0.71;-4.59;0.84;-0.26;2.39;-1.24;9.38;-0.84;421;488;430;549;167.3;16.2;167.3;1t
208074;44,18;0.48;-1.70;1.87;5.91;-.43;-0.48;1.70;-2.83;-2.51;11.43;791;415;756;332;165.7;-1.2;165.7;1t
208300;44,40;-0.17;-1.49;3.83;2.18;12.50;0.17;-14.51;-3.48;-31.20;-12.50;514;854;392;852;164.4;-10.9;164.4;1t
208525;44,63;0.01;-4.30;-5.33;-24.12;-13.99;-0.01;-11.70;5.32;0.72;13.99;877;499;923;501;165.9;-21.6;165.9;1t
208900;45,00;-1.73;-1.59;-22.73;13.54;-8.80;-14.27;1.59;-5.82;-10.35;8.80;935;527;838;446;166.6;-15.2;166.6;1t
209124;45,23;-3.55;-0.56;4.50;0.96;2.98;3.55;0.56;2.61;0.16;-2.98;301;681;307;660;168.3;6.2;168.3;1t
209499;45,60;-0.32;-0.31;10.23;3.59;5.54;0.32;0.31;-9.59;-2.97;-5.54;519;945;481;855;164.3;-43.7;164.3;1t
209724;45,83;0.44;-0.58;0.22;-1.48;-9.78;-0.44;0.58;-1.10;2.65;9.78;903;496;897;504;164.7;-35.3;164.7;1t
210099;46,20;-0.30;-3.84;-2.40;2.31;1.94;0.30;3.84;3.00;5.38;-1.94;611;793;580;815;164.5;-67.6;164.5;1t
210324;46,43;-0.68;-2.31;2.73;9.39;-14.23;0.68;2.31;-1.37;-4.77;14.23;941;535;859;465;163.1;-57.2;163.1;1t
210699;46,80;-0.68;-0.57;0.77;2.06;-14.42;0.68;0.57;0.59;-0.91;14.42;837;431;815;421;164.1;-9.6;164.1;1t
210925;47,03;-2.18;-0.38;-28.22;2.18;13.78;-13.82;0.38;0.58;-1.43;-13.78;524;859;476;941;164.4;-24.6;164.4;1t
211299;47,40;-2.06;-0.76;10.85;-0.69;-8.50;2.06;0.76;-6.74;2.21;8.50;932;545;868;455;164.7;-20.6;164.7;1t
211525;47,63;-0.44;-3.02;2.06;-28.76;16.71;0.44;-12.98;-1.18;2.80;-16.71;373;779;358;752;165.0;1.7;165.0;1t
211675;47,78;-0.93;-4.31;3.46;10.06;-14.48;0.93;4.31;-1.60;-1.43;14.48;908;526;892;474;166.3;-36.4;166.3;1t
212124;48,23;0.34;-1.15;25.25;6.03;-8.86;15.66;1.15;6.07;-3.73;8.86;588;165;589;211;161.4;25.0;161.4;1t
212274;48,38;2.33;-0.84;-0.51;1.88;-4.04;-2.33;0.84;-4.16;-0.20;4.04;807;597;829;567;161.3;-39.8;161.3;1t
212724;48,83;-0.16;-0.86;-3.86;1.08;-18.26;0.16;0.86;4.18;0.63;18.26;845;479;892;459;162.1;-14.6;162.1;1t
212875;48,98;-0.59;-0.88;-1.91;-0.14;16.96;0.59;0.88;3.08;1.90;-16.96;388;819;466;835;162.4;-10.8;162.4;1t
213324;49,43;-0.94;-0.98;1.87;1.21;9.88;0.94;0.98;0.01;0.76;-9.88;379;750;303;732;162.7;0.5;162.7;1t
213474;49,58;-1.02;-1.17;-1.55;-1.54;-7.70;1.02;1.17;3.59;3.87;7.70;532;100;468;113;161.7;52.3;161.7;1t
213925;50,03;-1.10;-1.34;-24.68;2.06;-5.45;-14.90;1.34;-5.13;0.62;5.45;796;390;899;504;159.4;-12.9;159.4;1t
214074;50,18;-2.85;-1.43;4.68;-3.37;3.95;2.85;1.43;1.03;6.22;-3.95;389;834;454;810;160.4;-5.8;160.4;1t
214525;50,63;-0.07;-1.55;4.38;-24.25;6.64;0.07;-14.45;-4.24;-4.66;-6.64;313;740;311;684;160.2;10.0;160.2;1t
214674;50,78;-0.77;-3.64;1.26;5.66;3.41;0.77;3.64;0.27;1.62;-3.41;533;858;536;873;161.8;-36.3;161.8;1t
214899;51,00;-0.59;-2.06;1.87;7.37;-1.90;0.59;2.06;-0.69;-3.24;1.90;698;611;722;614;159.8;-15.3;159.8;1t
215275;51,38;-0.72;-1.21;5.72;-8.19;-16.74;0.72;-14.79;-4.28;-21.39;16.74;749;353;744;340;160.9;4.1;160.9;1t
215499;51,60;-0.80;-2.61;0.04;2.67;0.41;0.80;2.61;1.56;2.54;-0.41;614;763;648;775;161.0;-65.9;161.0;1t
215875;51,98;-0.69;-1.02;-2.28;-4.41;12.26;0.69;-14.98;3.66;-25.55;-12.26;171;563;187;596;159.3;24.1;159.3;1t
216099;52,20;-0.79;-1.79;-2.40;5.78;-9.11;0.79;1.79;3.98;-2.20;9.11;495;100;505;106;160.2;63.3;160.2;1t
216475;52,58;-1.20;-3.50;4.80;-17.41;0.35;1.20;3.50;-2.40;24.41;-0.35;495;505;400;504;158.7;14.8;158.7;1t
216700;52,80;-0.61;-2.69;1.45;7.07;-15.52;0.61;2.69;-0.22;-1.69;15.52;872;514;928;486;157.1;-24.1;157.1;1t
217075;53,18;-0.49;-0.69;0.16;1.33;-17.41;0.49;0.69;0.81;0.04;17.41;920;489;880;511;156.8;-26.6;156.8;1t
217300;53,40;-0.41;-0.82;-2.34;-2.46;9.94;0.41;0.82;3.16;4.10;-9.94;446;873;554;927;157.2;-51.7;157.2;1t
217675;53,78;-0.30;-5.37;4.07;-4.84;11.83;0.30;5.37;-3.46;15.57;-11.83;511;872;489;928;158.8;-91.9;158.8;1t
217900;54,00;-0.49;-3.48;0.84;12.99;-14.72;0.49;3.48;0.15;-6.03;14.72;770;381;773;363;157.3;-2.9;157.3;1t
218125;54,23;-0.27;-2.02;-1.73;5.60;10.49;0.27;2.02;2.27;-1.57;-10.49;515;884;485;916;155.9;-42.1;155.9;1t
218275;54,38;0.09;-1.25;-0.57;3.59;-13.62;-0.09;1.25;0.38;-1.08;13.62;887;493;913;507;156.8;-28.7;156.8;1t
218500;54,60;-2.61;-1.48;-31.21;-0.14;8.35;2.61;1.48;36.44;3.10;-8.35;452;857;548;943;157.4;-41.3;157.4;1t
218724;54,83;-2.33;-1.61;7.31;3.89;-1.90;2.33;1.61;-2.64;-0.67;1.90;619;404;585;472;156.5;9.3;156.5;1t
218875;54,98;-1.00;-2.51;1.51;-27.91;2.92;1.00;-13.49;0.49;0.93;-2.92;139;434;160;467;154.3;45.8;154.3;1t
219100;55,20;-0.25;-3.16;1.99;6.76;-3.37;0.25;3.16;-1.50;-0.44;3.37;867;517;844;573;153.8;-43.8;153.8;1t
219325;55,43;0.34;-2.01;3.70;4.26;12.26;-0.34;2.01;-4.39;-0.23;-12.26;317;719;342;740;153.5;11.7;153.5;1t
219475;55,58;0.43;-1.40;-2.16;4.50;-0.81;-0.43;1.40;1.31;-1.70;0.81;478;359;510;470;154.1;18.9;154.1;1t
219700;55,80;0.38;-0.94;-1.30;0.84;-3.25;-0.38;0.94;0.53;1.05;3.25;819;580;815;585;154.9;-77.8;154.9;1t
219925;56,03;-1.78;-0.84;-7.71;-1.05;12.68;1.78;0.84;11.26;2.74;-12.68;495;899;505;901;155.1;-39.9;155.1;1t
220075;56,18;-1.15;-1.19;5.29;-1.17;-16.13;1.15;1.19;-2.99;3.56;16.13;565;173;621;214;153.7;29.6;153.7;1t
220300;56,40;-0.43;-1.33;5.47;2.12;8.23;0.43;1.33;-4.61;0.55;-8.23;507;894;493;906;151.9;-22.6;151.9;1t
220525;56,63;-0.18;-1.23;1.57;6.58;0.23;0.18;1.23;-1.20;-4.12;-0.23;298;328;288;328;153.0;37.3;153.0;1t
220900;57,00;0.23;-1.12;-2.22;1.02;16.28;-0.23;1.12;1.76;1.23;-16.28;210;623;248;635;153.4;23.8;153.4;1t
221125;57,23;0.52;-1.08;-2.58;3.34;-12.34;-0.52;1.08;1.55;-1.19;12.34;610;213;580;176;154.6;29.1;154.6;1t
221500;57,60;-0.23;-1.00;-1.36;-0.07;-9.05;0.23;1.00;1.82;2.08;49.05;765;379;840;425;154.6;-2.0;154.6;1t
221793;57,90;-0.25;-0.96;-2.40;1.15;10.55;0.25;0.96;2.91;0.78;-10.55;443;899;541;886;154.2;-13.2;154.2;1t
222100;58,20;0.21;-5.05;0.53;-25.53;19.27;-0.21;5.05;-0.95;35.63;-19.27;361;841;412;732;154.0;-3.0;154.0;1t
222325;58,43;-0.54;-3.76;1.38;11.28;-11.18;0.54;3.76;-0.31;-3.76;11.18;514;132;486;100;153.7;51.0;153.7;1t
222700;58,80;-0.21;-2.12;2.06;-22.05;-5.02;0.21;2.12;-1.64;26.30;5.02;735;383;740;292;152.2;6.2;152.2;1t
222925;59,03;-0.75;-2.03;1.63;1.82;-3.67;0.75;2.03;-0.13;2.23;3.67;691;440;680;443;152.8;6.2;152.8;1t
223300;59,40;-0.92;-1.69;-1.73;-25.59;2.43;0.92;1.69;3.58;28.97;-2.43;198;532;269;497;151.0;29.8;151.0;1t
224125;60,23;0.15;-0.69;0.96;0.84;-16.80;-0.15;0.69;-1.25;0.54;16.80;926;531;874;469;146.0;-58.2;146.0;1t
224275;60,38;1.48;-0.58;-1.61;3.71;-5.93;-1.48;0.58;-1.36;-2.56;5.93;490;105;510;100;148.2;57.9;148.2;1t
224725;60,83;-0.75;-0.86;-5.09;-0.50;-12.83;0.75;0.86;6.59;2.22;12.83;683;293;731;321;149.5;10.6;149.5;1t
224875;60,98;-0.34;-3.35;-1.06;-27.30;7.68;0.34;-12.65;1.74;2.00;-7.68;478;895;522;905;151.0;-23.6;151.0;1t
225175;61,28;-0.55;-4.20;-0.87;8.71;-12.28;0.55;4.20;1.98;-0.32;12.28;766;369;789;386;151.9;1.6;151.9;1t
225325;61,43;-0.47;-2.32;-2.34;9.39;12.93;0.47;2.32;3.28;-4.75;-12.93;453;858;547;942;150.2;-26.0;150.2;1t
225475;61,58;-0.27;-1.45;0.10;4.99;-11.24;0.27;1.45;0.44;-2.09;11.24;863;446;937;554;151.1;-18.8;151.1;1t
225926;62,03;-0.04;-0.77;3.15;-0.44;10.85;0.04;0.77;-3.08;1.98;-10.85;445;891;535;889;152.3;-10.6;152.3;1t
226076;62,18;0.54;-2.64;0.90;-27.24;-12.10;-0.54;-13.36;-1.97;0.51;12.10;855;419;802;438;151.3;-7.1;151.3;1t
226526;62,63;0.23;-2.90;4.31;13.05;-11.98;-0.23;2.90;-4.77;-7.26;11.98;928;530;872;470;149.0;-44.8;149.0;1t
226675;62,78;0.35;-1.49;2.06;3.89;7.92;-0.35;1.49;-2.75;-0.91;-7.92;100;494;106;506;149.6;50.4;149.6;1t
227275;63,38;-3.96;-0.89;-9.85;-1.05;-7.95;3.96;0.89;17.76;2.84;7.95;848;441;760;366;152.4;0.3;152.4;1t
227501;63,61;-1.57;-1.20;7.92;1.70;16.96;1.57;1.20;-4.78;0.71;-16.96;489;903;511;897;151.4;-20.2;151.4;1t
227875;63,98;0.41;-1.28;4.38;-0.38;3.04;-0.41;1.28;-5.20;2.95;-3.04;176;449;142;432;149.3;86.1;149.3;1t
228100;64,20;0.48;-1.01;-3.86;3.04;-8.50;-0.48;1.01;2.90;-1.01;8.50;873;480;927;520;149.1;-24.4;149.1;1t
228475;64,58;-0.07;-1.03;-1.48;-1.05;-5.81;0.07;1.03;1.62;3.11;5.81;600;227;598;171;152.3;28.5;152.3;1t
228700;64,80;-0.22;-2.86;-0.87;0.29;-0.13;0.22;2.86;1.31;5.42;0.13;582;596;636;630;153.1;-5.2;153.1;1t
229075;65,18;-0.43;-1.97;0.65;3.53;-0.99;0.43;1.97;0.22;0.41;0.99;711;694;762;634;152.8;-22.0;152.8;1t
229301;65,41;-0.84;-2.51;6.69;-23.82;0.11;0.84;-13.49;-5.01;-3.16;-0.11;693;621;598;566;153.9;-8.4;153.9;1t
229676;65,78;-0.81;-2.21;-0.45;5.11;0.96;0.81;2.21;2.06;-0.69;-0.96;601;628;588;644;153.1;-7.2;153.1;1t
229901;66,01;-0.64;-1.43;4.44;4.62;-2.82;0.64;1.43;-3.16;-1.77;2.82;820;569;809;602;153.2;-30.4;153.2;1t
230126;66,23;-0.91;-1.38;1.20;-1.11;4.50;0.91;1.38;0.63;3.87;-4.50;490;878;565;866;154.2;-21.0;154.2;1t
230275;66,38;-1.09;-1.18;0.71;2.24;-4.29;1.09;1.18;1.46;0.11;4.29;650;316;650;282;156.0;14.1;156.0;1t
230501;66,61;-0.98;-3.71;1.32;-26.75;14.45;0.98;-12.29;0.63;2.16;-14.45;295;705;281;671;156.6;12.0;156.6;1t
230726;66,83;-0.96;-4.19;1.20;12.93;-14.30;0.96;4.19;0.73;-4.55;14.30;669;274;656;251;156.4;14.0;156.4;1t
230876;66,98;-0.44;-2.34;-1.00;7.25;2.55;0.44;2.34;1.88;-2.57;-2.55;199;434;211;515;154.0;30.8;154.0;1t
231101;67,21;-0.87;-1.80;2.54;4.44;-10.21;0.87;1.80;-0.79;-0.85;10.21;701;284;632;249;153.2;15.9;153.2;1t
231326;67,43;-0.45;-1.28;0.04;3.10;-2.58;0.45;1.28;0.86;-0.55;2.58;630;430;619;406;153.1;7.9;153.1;1t
231476;67,58;-2.10;-0.96;-16.62;4.01;11.52;2.10;0.96;20.81;-2.10;-11.52;327;677;257;706;154.6;6.7;154.6;1t
231700;67,80;-1.83;-1.03;0.65;1.33;-4.10;1.83;1.03;3.01;0.72;4.10;564;153;562;179;155.8;31.0;155.8;1t
231926;68,03;-1.11;-1.12;3.76;-2.46;-4.77;1.11;1.12;-1.55;4.70;4.77;792;400;817;429;154.1;-4.0;154.1;1t
232076;68,18;-0.19;-1.22;5.05;-3.74;6.46;0.19;1.22;-4.66;6.17;-6.46;475;877;525;923;151.0;-46.5;151.0;1t
232301;68,41;-2.16;-1.23;-25.41;-0.75;-1.48;2.16;1.23;29.72;3.20;1.48;612;579;661;536;150.3;-3.0;150.3;1t
232526;68,63;-1.74;-1.14;6.08;-0.69;3.47;1.74;1.14;-2.60;2.97;-3.47;518;836;583;863;150.2;-53.0;150.2;1t
232676;68,78;-0.60;-1.00;5.17;-1.05;-1.97;0.60;1.00;-3.97;3.05;1.97;751;678;768;603;150.3;-19.0;150.3;1t
232901;69,01;-0.42;-3.70;0.16;-30.35;-0.07;0.42;-12.30;0.69;5.74;0.07;486;515;505;485;151.5;16.8;151.5;1t
233126;69,23;-0.07;-4.08;2.42;10.00;-11.55;0.07;4.08;-2.28;-1.84;11.55;916;515;884;485;150.7;-29.9;150.7;1t
233501;69,61;0.04;-1.16;0.35;8.35;-15.58;-0.04;1.16;-0.43;-6.03;15.58;934;499;866;501;147.6;-43.3;147.6;1t
233726;69,83;-0.16;-0.35;-0.14;3.89;15.37;0.16;0.35;0.46;-3.20;-15.37;477;903;523;897;148.0;-43.2;148.0;1t
234101;70,21;-0.37;-0.30;2.06;0.29;8.35;0.37;0.30;-1.32;0.31;-8.35;535;950;465;850;147.2;-26.0;147.2;1t
234326;70,43;-0.26;-0.40;-1.48;-1.54;9.57;0.26;0.40;2.00;2.33;-9.57;278;721;317;674;147.8;12.9;147.8;1t
234701;70,81;-4.13;-0.85;0.90;-0.07;14.45;4.13;0.85;7.36;1.78;-14.45;338;771;379;746;149.9;3.3;149.9;1t
234926;71,03;-2.13;-1.05;7.67;1.15;5.18;2.13;1.05;-3.42;0.96;-5.18;474;871;526;929;147.9;-19.6;147.9;1t
235301;71,41;-0.50;-1.86;-1.73;8.65;6.70;0.50;1.86;2.73;-4.93;-6.70;500;879;500;921;145.6;-19.7;145.6;1t
235526;71,63;0.05;-0.62;1.51;5.54;-9.78;-0.05;0.62;-1.60;-4.29;9.78;635;271;691;256;145.2;15.9;145.2;1t
236126;72,23;-0.88;-2.23;-1.85;9.08;7.80;0.88;2.23;3.61;-4.63;-7.80;504;893;496;907;142.8;-54.4;142.8;1t
236277;72,38;-0.75;-1.34;-0.26;5.97;-15.27;0.75;1.34;1.76;-3.30;15.27;900;510;900;490;137.9;-77.3;137.9;1t
236726;72,83;-0.52;-1.27;1.26;2.12;-2.03;0.52;1.27;-0.23;0.42;2.03;754;590;780;603;135.9;-7.3;135.9;1t
236876;72,98;-0.47;-1.16;5.05;2.00;-9.17;0.47;1.16;-4.12;0.32;9.17;632;225;561;168;136.5;30.5;136.5;1t
237326;73,43;-0.70;-0.95;2.18;1.51;-8.37;0.70;0.95;-0.77;0.40;8.37;901;546;899;454;138.6;-26.9;138.6;1t
237476;73,58;-0.23;-0.86;-1.30;1.15;4.75;0.23;0.86;1.77;0.58;-4.75;516;906;484;894;140.4;-20.0;140.4;1t
237926;74,03;0.24;-0.55;0.04;-2.64;-1.36;-0.24;0.55;-0.52;3.73;1.36;712;679;748;661;141.2;-18.1;141.2;1t
238076;74,18;0.61;-0.34;-2.22;-1.48;11.71;-0.61;0.34;1.00;2.15;-11.71;331;786;417;762;139.9;0.5;139.9;1t
238526;74,63;0.23;-0.35;-0.45;-1.23;5.79;-0.23;0.35;-0.02;1.94;-5.79;106;536;100;464;141.2;94.6;141.2;1t
238677;74,78;0.05;-2.06;-0.45;-30.53;-10.57;-0.05;-13.94;0.35;2.65;10.57;736;356;747;327;142.0;9.1;142.0;1t
239276;75,38;0.08;-0.81;-4.17;2.73;7.13;-0.08;0.81;4.01;-1.11;-7.13;372;794;452;830;141.1;-4.5;141.1;1t
239501;75,61;-0.60;-2.24;0.59;4.69;-2.09;0.60;2.24;0.62;-0.21;2.09;682;516;621;468;141.9;1.5;141.9;1t
239876;75,98;-0.33;-0.97;1.45;5.30;-9.53;0.33;0.97;-0.78;-3.36;9.53;506;126;494;100;141.5;43.6;141.5;1t
240101;76,21;-0.52;-1.09;1.87;0.78;2.12;0.52;1.09;-0.83;1.41;-2.12;460;602;425;574;141.9;11.8;141.9;1t
240544;76,65;-0.17;-1.21;1.02;-1.11;12.93;0.17;1.21;-0.68;3.53;-12.93;182;629;191;544;140.4;27.6;140.4;1t
240702;76,81;-0.44;-1.04;-0.32;-1.36;-16.80;0.44;1.04;1.20;3.44;16.80;846;444;867;469;139.8;-8.4;139.8;1t
241301;77,41;-0.18;-0.58;1.32;-2.15;5.24;0.18;0.58;-0.96;3.32;-5.24;421;862;475;833;141.0;-5.4;141.0;1t
241744;77,85;-0.03;-3.52;1.57;-26.69;0.66;0.03;-12.48;-1.51;1.72;-0.66;654;699;650;699;141.3;-7.8;141.3;1t
241901;78,01;-0.82;-3.75;1.45;9.94;7.13;0.82;3.75;0.19;-2.43;-7.13;526;920;474;880;140.3;-41.1;140.3;1t
242726;78,83;-1.90;-0.78;3.28;0.35;14.39;1.90;0.78;0.52;1.20;-14.39;184;538;100;540;141.7;35.6;141.7;1t
243102;79,21;-0.12;-0.89;3.76;-0.81;-5.26;0.12;-15.11;-3.52;-29.40;5.26;697;306;716;307;137.5;11.9;137.5;1t
243327;79,43;-0.02;-2.49;-1.24;3.04;12.87;0.02;2.49;1.27;1.95;-12.87;460;876;487;872;136.6;-8.5;136.6;1t
243701;79,81;-0.21;-1.02;0.35;0.23;15.67;0.21;1.02;0.08;1.82;-15.67;186;652;309;644;137.7;20.6;137.7;1t
243927;80,03;-0.16;-1.08;-0.63;0.17;-12.71;0.16;1.08;0.95;2.00;12.71;888;507;912;493;136.6;-53.4;136.6;1t
244301;80,41;-0.01;-0.96;1.57;1.02;-9.72;0.01;0.96;-1.55;0.90;9.72;764;370;757;351;135.9;5.4;135.9;1t
244526;80,63;-0.20;-0.79;-0.32;-1.48;0.66;0.20;0.79;0.73;3.06;-0.66;262;358;248;331;138.0;63.0;138.0;1t
244744;80,85;-0.06;-2.48;-0.57;-28.46;1.39;0.06;-13.52;0.69;1.42;-1.39;497;608;519;617;138.4;5.9;138.4;1t
244901;81,01;-0.15;-3.63;-0.39;9.14;-1.29;0.15;3.63;0.68;-1.89;1.29;485;388;492;381;138.4;26.1;138.4;1t
245126;81,23;-0.16;-2.09;1.99;6.76;-2.33;0.16;2.09;-1.67;-2.58;2.33;495;245;454;213;135.7;35.6;135.7;1t
245344;81,45;0.07;-0.96;-3.62;6.76;-1.60;-0.07;0.96;3.47;-4.84;1.60;650;557;691;555;135.4;1.8;135.4;1t
245501;81,61;0.13;-0.46;-1.30;0.96;-0.50;-0.13;0.46;1.04;-0.04;0.50;696;657;718;595;136.9;-9.4;136.9;1t
245727;81,83;0.17;-0.30;2.42;1.88;-12.10;-0.17;0.30;-2.77;-1.28;12.10;502;119;498;100;138.6;61.6;138.6;1t
246102;82,21;-0.77;-0.58;2.12;-0.38;-12.89;0.77;0.58;-0.57;1.54;12.89;783;371;769;381;136.6;-0.5;136.6;1t
246326;82,43;-0.58;-0.84;4.68;0.78;0.78;0.58;0.84;-3.52;0.90;-0.78;429;450;427;439;137.1;22.6;137.1;1t
246702;82,81;0.18;-4.45;0.04;3.77;13.42;-0.18;4.45;-0.40;5.12;-13.42;212;650;282;645;139.4;20.6;139.4;1t
246927;83,03;0.02;-2.43;0.16;10.67;-13.56;-0.02;2.43;-0.20;-5.81;13.56;891;521;874;444;138.6;-12.2;138.6;1t
247302;83,41;-0.46;-0.50;1.26;3.95;-11.12;0.46;0.50;-0.34;-2.95;11.12;511;113;489;100;137.3;48.8;137.3;1t
247527;83,63;0.23;-2.22;1.38;-29.92;-7.34;-0.23;-13.78;-1.84;2.37;7.34;859;501;941;499;136.6;-38.3;136.6;1t
247902;84,01;-0.01;-1.70;0.71;2.49;-17.23;0.01;1.70;-0.69;0.92;17.23;524;122;476;100;132.5;64.2;132.5;1t
248202;84,31;-0.04;-1.28;0.16;3.47;-3.19;0.04;1.28;-0.08;-0.90;3.19;735;431;776;485;131.4;3.1;131.4;1t
248345;84,45;0.05;-0.68;-1.85;0.11;10.61;-0.05;0.68;1.74;1.25;-10.61;450;924;550;876;131.8;-37.3;131.8;1t
248726;84,83;-0.61;-0.94;3.15;0.54;-5.63;0.61;0.94;-1.94;1.35;5.63;832;414;790;408;131.4;2.6;131.4;1t
248944;85,05;-0.44;-0.94;0.96;0.78;8.65;0.44;0.94;-0.09;1.09;-8.65;471;878;527;921;131.4;-10.5;131.4;1t
249327;85,43;2.96;-0.61;6.51;2.79;2.79;-2.96;0.61;-12.44;-1.57;-2.79;583;783;560;787;132.3;-8.4;132.3;1t
249544;85,65;1.33;-0.74;-9.66;1.33;-7.03;-1.33;0.74;7.00;0.14;7.03;904;496;896;504;133.4;-16.2;133.4;1t
249927;86,03;-0.51;-1.25;-5.57;3.04;-7.40;0.51;1.25;6.59;-0.53;7.40;598;205;669;262;134.9;27.9;134.9;1t
250145;86,25;-1.23;-2.24;-3.07;2.43;-0.07;1.23;2.24;5.54;2.06;0.07;713;646;751;690;135.3;-60.4;135.3;1t
250527;86,63;-0.38;-0.76;1.75;-0.50;-14.66;0.38;0.76;-0.98;2.01;14.66;553;189;598;162;135.8;34.0;135.8;1t
250745;86,85;-0.56;-2.46;0.47;-31.69;13.05;0.56;-13.54;0.66;4.61;-13.05;463;895;537;905;136.1;-22.4;136.1;1t
251345;87,45;0.24;-1.22;1.75;10.06;-1.84;-0.24;1.22;-2.23;-7.62;1.84;875;532;807;587;133.7;-18.1;133.7;1t
251502;87,61;0.78;-0.43;1.14;5.48;-3.13;-0.78;0.43;-2.70;-4.61;3.13;808;536;840;495;134.4;-9.0;134.4;1t
251945;88,05;-2.99;-0.59;-29.62;-1.78;-4.90;-13.01;0.59;3.60;2.97;4.90;832;459;905;477;136.4;-7.7;136.4;1t
252102;88,21;-2.89;-0.99;14.32;-0.38;5.30;2.89;0.99;-8.54;2.35;-5.30;385;788;358;755;136.4;0.7;136.4;1t
252545;88,65;-0.34;-1.75;1.81;-0.26;4.14;0.34;1.75;-1.14;3.75;-4.14;484;791;513;805;132.2;-3.5;132.2;1t
252702;88,81;-0.35;-1.27;-1.18;3.10;-11.06;0.35;1.27;1.88;-0.57;11.06;738;334;711;315;131.7;9.0;131.7;1t
253302;89,41;-0.10;-2.04;0.53;3.71;2.73;0.10;2.04;-0.34;0.37;-2.73;532;788;579;768;131.7;-5.2;131.7;1t
253745;89,85;-1.98;-1.44;2.61;5.78;-19.91;1.98;1.44;1.36;-2.90;19.91;737;351;781;367;123.1;-47.3;123.1;1t
253902;90,01;-2.13;-2.68;2.79;-28.40;-3.49;2.13;-13.32;1.47;1.76;3.49;816;496;893;509;112.5;-64.0;112.5;1t
254127;90,23;-1.01;-5.31;6.69;3.65;10.00;1.01;5.31;-4.68;6.96;-10.00;346;766;381;761;100.9;-48.9;100.9;1t
254502;90,61;-0.27;-1.48;1.93;11.22;3.41;0.27;1.48;-1.39;-8.26;-3.41;295;503;304;489;80.1;-21.7;80.1;1t
254727;90,83;-0.23;-0.87;-1.30;2.31;-12.59;0.23;0.87;1.76;-0.57;12.59;869;505;931;495;71.5;-24.6;71.5;1t
255102;91,21;-0.88;-0.50;-5.88;8.65;-12.10;0.88;0.50;7.64;-7.65;12.10;744;330;808;423;67.4;7.8;67.4;1t
255327;91,43;-2.50;-0.10;-3.07;-1.30;10.36;2.50;0.10;8.08;1.50;-10.36;374;786;370;757;70.2;7.1;70.2;1t
255702;91,81;-0.79;-0.40;2.85;-1.97;-8.44;0.79;0.40;-1.27;2.77;8.44;623;243;638;218;72.4;22.9;72.4;1t
255928;92,03;-1.58;-0.81;-25.41;0.47;9.45;-14.42;0.81;-3.43;1.15;-9.45;373;822;549;900;72.7;-8.6;72.7;1t
256303;92,41;-1.61;-1.49;10.48;-0.69;10.91;1.61;1.49;-7.27;3.66;-10.91;374;816;430;788;72.8;-4.5;72.8;1t
256527;92,63;0.29;-0.94;6.88;5.17;50.04;-0.29;0.94;-7.45;-3.30;-10.04;301;747;359;713;72.6;9.8;72.6;1t
256745;92,85;0.51;-0.67;4.25;1.51;31.79;-0.51;0.67;-5.28;-0.18;8.21;813;442;830;401;73.4;-2.7;73.4;1t
256902;93,01;0.91;-0.53;-0.26;0.78;-11.73;-0.91;0.53;-1.56;0.29;11.73;737;362;757;331;74.6;8.2;74.6;1t
257128;93,23;0.17;-3.25;0.47;-27.66;16.89;-0.17;-12.75;-0.80;2.16;-16.89;275;655;280;700;75.2;18.6;75.2;1t
257503;93,61;-0.44;-3.36;1.57;12.99;10.67;0.44;3.36;-0.68;-6.26;-10.67;281;658;220;643;75.2;20.5;75.2;1t
257727;93,83;-0.41;-1.45;0.77;9.02;-6.18;0.41;1.45;0.05;-6.11;6.18;939;510;861;490;74.1;-56.5;74.1;1t
258103;94,21;-0.25;-0.81;-1.18;-0.50;-15.27;0.25;0.81;1.67;2.12;15.27;907;530;893;470;74.5;-23.4;74.5;1t
258328;94,43;-0.90;-0.92;1.93;3.65;5.97;0.90;0.92;-0.14;-1.81;-5.97;491;895;464;860;75.2;-11.8;75.2;1t
258703;94,81;-1.18;-1.49;-24.25;-1.97;-1.90;1.18;1.49;26.62;4.94;1.90;744;564;857;635;75.3;-17.8;75.3;1t
258927;95,03;-2.04;-1.62;3.95;1.08;4.44;2.04;1.62;0.14;2.16;-4.44;452;765;422;749;75.9;1.7;75.9;1t
259303;95,41;-2.16;-1.13;-24.68;1.45;15.12;2.16;1.13;29.00;0.81;-15.12;445;836;466;875;76.5;-9.3;76.5;1t
259528;95,63;-2.76;-0.79;5.90;7.01;-12.83;2.76;0.79;-0.38;-5.42;12.83;627;197;589;219;76.9;25.5;76.9;1t
259746;95,85;-2.62;-1.76;4.62;4.81;10.30;2.62;1.76;0.62;-1.28;-10.30;427;787;383;824;76.5;-2.4;76.5;1t
260128;96,23;-1.27;-1.00;4.07;-2.15;10.42;1.27;1.00;-1.53;4.15;-10.42;523;921;477;879;76.8;-3.4;76.8;1t
260346;96,45;-0.84;-3.70;2.30;-24.31;-10.69;0.84;-12.30;-0.62;-0.30;10.69;957;483;843;517;81.7;34.8;81.7;1t
260728;96,83;0.05;-2.20;0.59;7.43;-13.14;-0.05;2.20;-0.68;-3.04;13.14;735;377;762;320;102.0;61.9;102.0;1t
260946;97,05;-0.02;-1.24;-1.48;5.66;14.58;0.02;1.24;1.53;-3.18;-14.58;511;918;489;882;112.2;23.4;112.2;1t
261328;97,43;0.41;-0.41;-0.87;0.66;1.76;-0.41;0.41;0.05;0.17;-1.76;365;600;490;608;131.6;64.2;131.6;1t
261546;97,65;0.31;-0.55;1.63;-0.32;-1.17;-0.31;0.55;-2.24;1.41;1.17;815;634;736;615;141.8;29.0;141.8;1t
262146;98,25;0.20;-1.30;0.47;0.54;-5.20;-0.20;1.30;-0.87;2.07;5.20;850;444;852;458;170.1;47.4;170.1;1t
262529;98,63;-2.04;-5.91;-1.00;-25.47;-15.15;2.04;-10.09;5.09;5.28;15.15;712;321;702;293;188.2;19.1;188.2;1t
262746;98,85;-2.53;-5.84;8.34;17.32;13.05;2.53;5.84;-3.29;-5.65;-13.05;506;890;494;910;187.6;-27.6;187.6;1t
262904;99,01;-1.40;-4.25;2.97;-13.81;-4.10;1.40;-11.75;-0.17;-9.70;4.10;516;107;468;109;184.7;53.7;184.7;1t
263346;99,45;-1.20;-3.05;1.08;14.33;-2.15;1.20;3.05;1.32;-8.22;2.15;786;587;785;583;180.3;-9.0;180.3;1t
263504;99,61;-0.56;-1.66;-1.00;3.34;9.81;0.56;1.66;2.11;-0.02;-9.81;100;508;125;492;177.5;49.2;177.5;1t
263946;100,05;-6.34;-1.18;-15.83;-0.93;-6.85;-9.66;1.18;-3.49;3.29;6.85;502;143;558;116;179.1;46.9;179.1;1t
264104;100,21;-4.49;-1.16;16.03;-0.56;8.35;4.49;1.16;-7.06;2.88;-8.35;510;923;490;877;175.5;-77.1;175.5;1t
264704;100,81;0.13;-1.61;1.63;1.08;-3.49;-0.13;1.61;-1.88;2.14;3.49;806;564;842;587;166.7;-12.6;166.7;1t
265147;101,25;-0.35;-1.81;-0.75;2.55;-14.30;0.35;1.81;1.44;1.08;14.30;542;122;548;168;169.8;44.9;169.8;1t
265304;101,41;-0.48;-3.97;1.14;-27.91;12.74;0.48;-12.03;-0.19;3.85;-12.74;461;879;443;825;170.5;0.5;170.5;1t
266129;102,23;-3.29;-1.01;1.87;4.08;0.96;3.29;1.01;4.70;-2.05;-0.96;579;756;668;797;156.2;-25.7;156.2;1t
266504;102,61;-0.26;-0.55;1.14;1.02;-29.92;0.26;0.55;-0.62;0.08;-10.08;489;880;511;920;153.5;-36.2;153.5;1t
266797;102,90;-0.18;-0.88;0.53;2.85;13.42;0.18;0.88;-0.17;-1.10;-13.42;545;882;455;918;156.5;-55.3;156.5;1t
267104;103,21;-0.22;-1.26;-0.20;-0.87;8.59;0.22;1.26;0.65;3.39;-8.59;478;910;522;890;161.1;-16.2;161.1;1t
267329;103,43;-1.07;-1.39;0.29;-0.69;-3.06;1.07;1.39;1.86;3.47;3.06;784;606;807;603;161.7;-84.1;161.7;1t
267704;103,81;-0.39;-1.31;-1.00;0.84;-9.41;0.39;1.31;1.77;1.79;9.41;757;370;717;304;160.4;17.0;160.4;1t
268147;104,25;-0.76;-2.09;5.54;-21.07;-5.57;0.76;-13.91;-4.02;-6.75;5.57;770;496;857;331;162.7;7.3;162.7;1t
268305;104,41;-0.77;-6.22;-3.13;-22.05;9.45;0.77;6.22;4.67;34.48;-9.45;428;932;572;868;163.7;-70.9;163.7;1t
268530;104,63;-0.89;-3.96;-0.81;15.12;-5.93;0.89;3.96;2.60;-7.21;5.93;906;466;894;534;163.8;-13.4;163.8;1t
268904;105,01;-0.42;-1.36;2.54;1.02;-13.87;0.42;1.36;-1.70;1.69;13.87;929;541;871;459;162.2;-43.8;162.2;1t
269129;105,23;-0.67;-1.40;1.20;1.02;14.27;0.67;1.40;0.13;1.78;-14.27;488;906;512;894;162.6;-25.8;162.6;1t
269504;105,61;-0.43;-1.99;0.22;2.18;9.14;0.43;1.99;0.63;1.79;-9.14;485;897;515;903;162.1;-40.6;162.1;1t
269729;105,83;-0.58;-1.71;1.32;2.79;-15.46;0.58;1.71;-0.17;0.63;15.46;833;490;883;426;162.0;-1.6;162.0;1t
270104;106,21;-0.46;-1.92;-2.03;6.64;-0.99;0.46;1.92;2.95;-2.81;0.99;778;632;728;662;162.7;-18.6;162.7;1t
270329;106,43;-0.69;-1.24;-1.67;2.37;-8.25;0.69;1.24;3.05;0.11;8.25;752;324;774;402;163.0;14.8;163.0;1t
270705;106,81;-0.52;-2.30;-1.06;8.10;-12.65;0.52;2.30;2.10;-3.51;12.65;878;489;913;502;163.0;-6.4;163.0;1t
270930;107,03;-0.34;-1.65;0.04;5.60;12.87;0.34;1.65;0.65;-2.30;-12.87;523;884;477;916;164.4;-42.7;164.4;1t
271147;107,25;-0.12;-1.31;0.59;0.90;-16.07;0.12;1.31;-0.35;1.71;16.07;701;320;748;329;164.5;14.9;164.5;1t
271305;107,41;-1.10;-1.32;-27.49;0.47;15.12;1.10;1.32;29.68;2.17;-15.12;486;912;514;888;162.5;-15.0;162.5;1t
271529;107,63;-0.74;-1.14;1.02;-2.58;1.76;0.74;1.14;0.46;4.86;-1.76;437;568;479;622;161.4;16.4;161.4;1t
271747;107,85;-0.20;-3.09;-0.57;-31.33;-1.17;0.20;-12.91;0.98;5.50;1.17;389;317;424;331;163.0;40.1;163.0;1t
272130;108,23;-0.39;-3.03;1.45;-11.86;-12.83;0.39;-12.97;-0.66;-14.08;12.83;642;229;633;246;162.0;23.9;162.0;1t
272348;108,45;-0.08;-2.83;2.91;9.39;11.40;0.08;2.83;-2.75;-3.74;-11.40;475;890;525;910;160.7;-40.8;160.7;1t
272730;108,83;-0.33;-1.32;4.07;0.66;15.92;0.33;1.32;-3.42;1.99;-15.92;410;787;369;792;158.2;10.1;158.2;1t
272948;109,05;0.11;-1.25;1.57;4.69;-12.46;-0.11;1.25;-1.80;-2.18;12.46;933;489;867;511;157.4;-10.6;157.4;1t
273330;109,43;-0.45;-1.07;4.92;0.29;-3.49;0.45;1.07;-4.02;1.85;3.49;538;163;434;100;162.4;86.5;162.4;1t
273548;109,65;-0.66;-2.81;2.91;-26.75;-7.83;0.66;-13.19;-1.59;0.37;7.83;891;525;909;475;163.1;-29.9;163.1;1t
273930;110,03;-1.02;-2.73;1.32;9.08;-9.53;1.02;2.73;0.71;-3.62;9.53;683;290;624;218;164.4;29.5;164.4;1t
274148;110,25;-1.33;-2.02;4.44;8.17;14.21;1.33;2.02;-1.79;-4.12;-14.21;351;739;339;751;162.4;16.7;162.4;1t
274531;110,64;-1.09;-0.91;-28.10;-1.17;10.30;-14.91;0.91;-1.73;2.99;-10.30;387;778;359;769;160.6;14.3;160.6;1t
274748;110,85;-3.69;-1.08;3.76;2.43;-8.80;3.69;1.08;3.62;-0.28;8.80;910;514;890;486;162.6;-25.2;162.6;1t
274905;111,01;-1.87;-1.30;9.99;-0.20;9.39;1.87;1.30;-6.25;2.79;-9.39;522;917;478;883;161.6;-31.8;161.6;1t
275348;111,45;-0.78;-1.43;1.81;0.54;6.46;0.78;1.43;-0.24;2.33;-6.46;497;881;503;919;162.7;-58.5;162.7;1t
275505;111,61;-0.79;-4.18;1.08;-27.79;-2.39;0.79;-11.82;0.50;4.15;2.39;738;498;703;444;164.6;4.6;164.6;1t
275948;112,05;-0.46;-2.76;-0.45;13.54;-1.23;0.46;2.76;1.36;-8.02;1.23;783;614;758;645;164.3;-22.5;164.3;1t
276105;112,21;-1.96;-1.42;-32.06;5.60;0.60;-14.04;1.42;3.98;-2.77;-0.60;224;323;288;365;166.3;72.6;166.3;1t
276548;112,65;-3.21;-1.08;13.53;3.95;-4.83;3.21;1.08;-7.11;-1.78;4.83;811;415;824;419;163.0;-3.2;163.0;1t
276705;112,81;-1.37;-1.34;7.98;-1.05;15.73;1.37;1.34;-5.24;3.73;-15.73;380;804;365;741;160.0;8.9;160.0;1t
277148;113,25;-0.68;-1.25;-0.45;1.33;4.50;0.68;1.25;1.81;1.18;-4.50;474;913;526;887;158.7;-4.9;158.7;1t
277305;113,41;-0.41;-1.07;-0.51;-2.33;-3.13;0.41;1.07;1.33;4.48;3.13;824;602;856;487;159.4;-1.6;159.4;1t
277748;113,85;-0.67;-1.48;1.69;-2.15;-0.62;0.67;1.48;-0.34;5.10;0.62;752;692;718;638;160.5;-30.0;.5;1t
277905;114,01;-0.55;-1.62;4.19;-0.62;-0.13;0.55;1.62;-3.09;3.86;0.13;488;584;513;485;159.6;18.6;159.6;1t
278131;114,24;-0.67;-2.10;-0.20;-22.78;14.15;0.67;-13.90;1.55;-5.01;-14.15;271;704;345;713;160.4;20.2;160.4;1t
278505;114,61;-0.25;-2.83;-0.51;8.84;13.72;0.25;2.83;1.01;-3.19;-13.72;280;695;290;674;160.3;24.6;160.3;1t
278730;114,83;-0.20;-3.06;2.36;4.99;-11.98;0.20;3.06;-1.96;1.14;11.98;967;498;833;502;160.4;-24.6;160.4;1t
279106;115,21;-0.33;-0.88;-3.99;6.09;-13.26;-15.67;0.88;-27.35;-4.33;13.26;902;507;898;493;156.7;-86.7;156.7;1t
279330;115,43;-1.37;-0.30;2.54;0.35;4.99;1.37;0.30;0.20;0.24;-4.99;491;898;509;902;154.9;-29.2;154.9;1t
279548;115,65;-0.40;-0.66;-1.97;-3.68;-3.37;0.40;0.66;2.77;5.00;3.37;661;379;681;337;152.9;23.4;152.9;1t
279705;115,81;-0.26;-1.08;1.81;-5.93;-2.70;0.26;1.08;-1.30;8.09;2.70;630;496;744;482;152.4;15.1;152.4;1t
279931;116,04;-0.45;-4.25;1.69;-29.13;4.26;0.45;-11.75;-0.78;5.62;-4.26;191;604;257;585;153.8;42.6;153.8;1t
280298;116,40;-0.74;-5.18;2.73;14.64;-9.29;0.74;5.18;-1.24;-4.27;9.29;925;517;875;483;153.4;-60.5;153.4;1t
280309;116,41;0.07;-2.61;-0.20;13.84;9.75;-0.07;2.61;0.06;-8.62;-9.75;416;807;430;839;150.8;8.4;150.8;1t
280530;116,63;0.35;-1.21;1.08;8.29;-5.87;-0.35;1.21;-1.78;-5.87;5.87;895;490;905;510;149.2;-6.1;149.2;1t
280906;117,01;0.18;-0.67;-1.06;-2.39;10.24;-0.18;-15.33;0.69;-28.28;-10.24;446;826;410;830;152.2;11.5;152.2;1t
281130;117,23;-0.49;-2.40;-2.89;2.79;-15.70;0.49;2.40;3.88;2.01;15.70;892;524;908;476;153.8;-9.0;153.8;1t
281506;117,61;-0.58;-2.64;-0.63;-27.11;8.53;0.58;-13.36;1.80;0.39;-8.53;540;922;460;878;154.0;-28.2;154.0;1t
281730;117,83;-0.07;-3.64;-0.51;7.37;-13.75;0.07;3.64;0.65;-0.08;13.75;879;439;844;485;154.5;-1.9;154.5;1t
282105;118,21;0.16;-1.36;-1.55;3.04;-5.02;-0.16;1.36;1.23;-0.31;5.02;896;498;904;502;155.9;-26.2;155.9;1t
282331;118,44;-2.58;-1.37;-31.70;3.40;1.82;-13.42;1.37;4.86;-0.66;-1.82;325;471;334;444;157.5;35.3;157.5;1t
282705;118,81;-0.60;-0.66;9.62;1.02;3.71;0.60;0.66;-8.42;0.30;-3.71;293;631;296;560;157.0;32.1;157.0;1t
282931;119,04;-0.27;-3.64;1.38;-33.40;2.18;0.27;-12.36;-0.85;8.68;-2.18;304;502;347;422;158.2;42.1;158.2;1t
283148;119,25;-0.67;-4.83;0.71;13.48;-10.02;0.67;4.83;0.63;-3.81;10.02;652;254;639;238;160.2;29.2;160.2;1t
283531;119,64;0.16;-1.47;-0.57;7.31;-11.91;-0.16;1.47;0.24;-4.36;11.91;856;491;865;430;158.3;-1.3;158.3;1t
283748;119,85;-0.53;-1.14;-2.70;1.21;2.92;0.53;1.14;3.77;1.08;-2.92;558;806;567;800;159.3;-2.9;159.3;1t
284130;120,23;-0.74;-1.20;2.06;3.83;-3.74;0.74;1.20;-0.57;-1.43;3.74;641;286;589;266;159.1;25.0;159.1;1t
284348;120,45;-0.65;-1.20;0.10;1.57;-4.77;0.65;1.20;1.20;0.82;4.77;670;234;636;271;158.5;28.1;158.5;1t
284731;120,84;-1.29;-1.93;-0.51;3.10;-0.50;1.29;1.93;3.10;0.77;0.50;750;648;757;644;157.8;-65.8;157.8;1t
284948;121,05;-1.27;-1.58;2.79;0.96;-9.17;1.27;1.58;-0.24;2.19;9.17;692;299;673;265;156.4;21.8;156.4;1t
285331;121,44;-0.93;-1.69;0.10;-1.17;-10.27;0.93;1.69;1.76;4.55;10.27;865;521;935;479;151.2;-15.1;151.2;1t
285624;121,73;-1.00;-4.77;2.24;-27.85;-4.53;1.00;-11.23;-0.24;5.39;4.53;736;366;704;274;152.7;24.6;152.7;1t
286149;122,25;-0.39;-2.16;2.06;6.03;2.55;0.39;2.16;-1.28;-1.72;-2.55;262;433;275;384;152.3;50.4;152.3;1t
286306;122,41;-0.20;-0.89;-2.34;8.23;-9.17;0.20;0.89;2.74;-6.45;9.17;623;236;611;197;151.7;34.8;151.7;1t
286748;122,85;0.33;-1.80;-1.91;4.26;-3.13;-0.33;1.80;1.25;-0.67;3.13;742;463;821;478;152.3;7.1;152.3;1t
286906;123,01;0.19;-0.91;-0.93;2.24;5.05;-0.19;0.91;0.55;-0.42;-5.05;340;704;301;666;152.6;27.3;152.6;1t
287349;123,45;-0.56;-0.73;-15.03;-0.75;2.49;-15.44;0.73;-15.85;2.20;-2.49;329;474;381;507;153.4;38.9;153.4;1t
287506;123,61;-1.97;-1.23;5.66;2.61;-1.97;1.97;1.23;-1.71;-0.15;1.97;799;595;821;585;152.9;-21.5;152.9;1t
288106;124,21;-0.11;-1.23;0.47;1.51;1.94;0.11;1.23;-0.25;0.94;-1.94;371;427;339;452;152.2;42.4;152.2;1t
288549;124,65;-0.06;-4.15;-0.14;-12.95;15.06;0.06;4.15;0.27;21.25;-15.06;129;486;100;514;152.6;65.8;152.6;1t
288706;124,81;0.15;-2.67;-3.86;6.46;-14.66;-0.15;2.67;3.57;-1.11;14.66;578;237;676;218;152.0;34.0;152.0;1t
289531;125,64;-0.12;-3.08;6.69;12.07;-14.36;0.12;3.08;-6.46;-5.92;14.36;671;279;572;163;150.9;34.7;150.9;1t
289906;126,01;0.44;-0.49;-5.27;4.81;1.51;-0.44;0.49;4.39;-3.83;-1.51;572;618;676;659;148.3;-33.7;148.3;1t
290131;126,24;-0.06;-0.57;-2.46;2.18;-7.89;0.06;0.57;2.58;-1.05;7.89;726;342;747;331;146.9;-30.3;146.9;1t
290506;126,61;-1.30;-0.44;3.70;0.60;-12.71;1.30;0.44;-1.10;0.29;12.71;877;485;890;482;130.5;-56.5;130.5;1t
290949;127,05;-0.51;-0.64;-0.39;5.24;-16.61;0.51;0.64;1.41;-3.96;16.61;904;493;896;507;110.7;-62.8;110.7;1t
291106;127,21;-0.42;-0.59;-4.66;1.27;9.94;0.42;0.59;5.51;-0.09;-9.94;247;660;299;685;102.5;-27.3;102.5;1t
291331;127,44;-0.32;-0.04;-7.71;0.90;-16.80;0.32;0.04;8.35;-0.83;16.80;893;516;907;484;92.7;-70.8;92.7;1t
291549;127,65;-3.07;-1.59;-28.40;-16;-13.38;-12.93;1.59;2.54;19.55;13.38;860;473;881;468;82.9;-55.3;82.9;1t
291706;127,81;-4.64;-2.72;18.47;-9.41;-16.61;4.64;2.72;-9.20;14.86;16.61;757;437;847;367;73.1;-47.6;73.1;1t
291931;128,04;-0.72;-0.72;9.20;15.06;-10.27;0.72;0.72;-7.75;-13.62;10.27;799;453;875;421;60.9;-53.7;60.9;1t
292306;128,41;5.32;-1.16;-5.94;-1.17;6.15;-5.32;1.16;-4.69;3.49;-6.15;417;843;572;888;43.2;-55.9;43.2;1t
292531;128,64;2.83;-1.13;-10.40;7.92;-16.00;-2.83;1.13;4.73;-5.65;16.00;813;410;802;405;34.1;-46.6;34.1;1t
292906;129,01;1.05;-0.17;0.04;0.84;4.14;-1.05;0.17;-2.15;-0.50;-4.14;464;671;438;622;15.9;-40.0;15.9;1t
293131;129,24;0.80;-0.63;-2.77;-4.35;-4.90;-0.80;0.63;1.16;5.62;4.90;891;526;909;474;6.9;-75.2;6.9;1t
