timestamp_ms,roll,pitch,rate_roll,rate_pitch,rate_yaw,error_angle_roll,error_angle_pitch,error_rate_roll,error_rate_pitch,error_rate_yaw,motor1,motor2,motor3,motor4,altitude,velocity,lidar_raw,armed
52932,0.00,0.00,0.00,0.00,0.00,0.00,0.00,0.00,0.00,0.00,0,0,0,0,0.0,0.0,0.0,0t
53533,-2.27,-2.07,-3.14,-1.96,4.93,2.27,2.07,7.69,6.10,-4.93,100,559,206,441,0.1,-6.5,0.1,1t
53908,-2.59,0.96,-0.27,-11.36,-3.25,2.59,-0.96,5.45,9.44,3.25,404,119,430,247,0.2,12.8,0.2,1t
54134,-1.58,1.69,5.89,8.72,17.08,1.58,-1.69,-2.72,-12.10,-17.08,213,468,100,532,0.0,3.7,0.0,1t
54509,-1.56,1.15,-21.64,-26.93,9.27,1.56,-1.15,24.75,24.62,-9.27,100,547,453,453,0.1,3.0,0.1,1t
54733,-3.88,-0.21,-5.22,-7.82,2.06,3.88,0.21,12.99,8.25,-2.06,238,551,100,318,0.1,16.2,0.1,1t
54958,-4.59,0.03,-3.20,-7.76,7.43,4.59,-0.03,12.39,7.70,-7.43,204,473,100,527,0.1,15.1,0.1,1t
55109,-4.36,0.02,-0.70,5.18,-13.62,4.36,-0.02,9.43,-5.21,13.62,694,100,306,153,0.1,15.2,0.1,1t
55334,-3.50,1.40,-2.78,-1.90,16.83,3.50,-1.40,9.77,-0.89,-16.83,100,458,124,542,-0.1,6.1,-0.1,1t
55551,-3.81,1.30,49.11,19.77,-12.34,3.81,-1.30,-41.48,-22.36,12.34,999,467,467,201,0.2,12.0,0.2,1t
55934,1.24,-0.63,-0.03,-3.00,-4.83,-1.24,0.63,-2.44,4.25,4.83,481,163,386,226,8.7,52.2,8.7,1t
56151,-1.05,-1.03,-33.42,-0.13,9.69,-14.95,1.03,3.51,2.19,-9.69,347,735,381,792,12.1,18.0,12.1,1t
56534,-3.04,-0.29,11.38,0.97,13.42,3.04,0.29,-5.31,-0.38,-13.42,189,592,181,578,22.7,49.1,22.7,1t
56752,-1.22,-0.26,8.58,1.82,-14.23,1.22,0.26,-6.14,-1.31,14.23,733,270,647,310,28.2,35.6,28.2,1t
56984,-3.45,-0.10,-22.55,0.23,15.00,3.45,0.10,29.45,-0.04,-15.00,350,673,309,785,34.7,34.7,34.7,1t
57134,-2.15,0.12,6.81,-1.29,-11.49,2.15,-0.12,-2.50,1.05,11.49,685,301,755,339,41.5,35.1,41.5,1t
57359,-4.80,-0.44,-19.32,-2.63,12.93,-11.20,0.44,-3.07,3.51,-12.93,312,794,402,720,48.8,30.4,48.8,1t
57952,-0.41,-0.48,8.64,1.15,-1.35,0.41,0.48,-7.82,-0.18,1.35,508,482,468,475,70.1,47.3,70.1,1t
58109,-1.21,-0.77,6.93,1.45,-1.17,1.21,0.77,-4.51,0.08,1.17,453,577,485,523,78.5,42.6,78.5,1t
58552,-1.09,-0.64,0.09,0.60,-15.94,1.09,0.64,2.09,0.68,15.94,554,178,592,167,94.6,65.6,94.6,1t
58709,-1.23,-0.40,1.01,1.64,-49.39,1.23,0.40,1.44,-0.83,9.39,518,100,482,116,102.8,78.9,102.8,1t
59152,-2.31,-0.36,2.17,-0.07,-16.25,2.31,0.36,2.46,0.79,16.25,895,511,905,489,111.8,-37.8,111.8,1t
59310,-3.41,-1.01,-21.21,-1.90,1.27,-12.59,1.01,-3.97,3.92,-1.27,510,824,497,738,107.7,-27.6,107.7,1t
59534,-4.21,-0.82,7.54,1.94,4.38,4.21,0.82,0.87,-0.31,-4.38,504,908,496,892,105.5,-41.4,105.5,1t
59910,-2.58,-0.91,3.94,-6.05,20.80,2.58,-15.09,1.22,-24.12,-20.80,475,905,525,895,101.6,-60.0,101.6,1t
60134,-2.45,-4.32,2.96,1.82,-16.13,2.45,4.32,1.94,6.81,16.13,931,500,869,500,100.7,-51.5,100.7,1t
60510,-1.84,-1.10,-5.77,8.23,-14.66,-14.16,1.10,-22.55,-6.03,14.66,951,474,849,526,97.7,-32.8,97.7,1t
60734,-4.62,-0.98,-6.93,-0.13,16.10,4.62,0.98,16.16,2.10,-16.10,340,699,310,752,98.9,-3.2,98.9,1t
61109,-4.09,-0.11,-17.30,-3.49,19.46,4.09,0.11,25.49,3.71,-19.46,332,702,248,678,96.9,2.2,96.9,1t
61334,-3.06,-0.20,11.51,-0.93,-7.82,3.06,0.20,-5.39,1.32,7.82,845,491,820,374,96.0,-19.1,96.0,1t
61551,-1.29,-0.86,9.86,-28.58,-3.00,1.29,-15.14,-7.27,-1.70,3.00,495,491,571,434,94.8,1.2,94.8,1t
61710,-0.98,-4.70,4.49,-21.62,13.29,0.98,-11.30,-2.52,-0.99,-13.29,461,887,487,861,94.6,-25.0,94.6,1t
61934,-1.23,-3.98,1.50,15.31,-0.13,1.23,3.98,0.97,-7.35,0.13,513,633,487,647,93.7,-6.7,93.7,1t
62309,-3.00,-1.04,-29.21,2.31,5.79,-13.00,1.04,3.21,-0.23,-5.79,105,498,100,502,92.8,48.2,92.8,1t
62535,-6.85,-0.49,-17.30,3.23,-11.98,-9.15,0.49,-1.01,-2.25,11.98,770,315,667,322,93.5,-3.0,93.5,1t
62910,-6.55,-0.02,19.69,-0.68,-13.50,6.55,0.02,-6.59,0.73,13.50,901,535,899,465,90.9,-37.7,90.9,1t
63135,-3.42,-0.87,17.24,-1.41,10.36,3.42,0.87,-10.40,3.15,-10.36,361,805,345,701,89.4,-7.5,89.4,1t
63352,-1.99,-1.04,9.43,-0.44,4.81,1.444,834,425,834,90.2,-16.5,90.2,1t
63509,-2.33,-1.52,9.13,4.45,-13.62,2.33,1.52,-4.46,-1.41,13.62,785,402,734,317,90.9,-5.9,90.9,1t
63734,-2.09,-1.30,10.53,3.35,1.39,2.09,1.30,-6.36,-0.75,-1.39,275,604,198,570,90.8,15.9,90.8,1t
63952,-2.28,-0.99,0.21,-0.44,0.66,2.28,0.99,4.34,2.43,-0.66,258,450,238,476,90.6,21.4,90.6,1t
64109,-2.01,-1.10,1.80,0.11,1,1.10,2.21,2.09,-10.36,233,575,152,610,90.8,18.4,90.8,1t
64335,-2.08,-1.14,-0.33,-0.50,-1.90,2.08,-14.86,4.49,-29.22,1.90,840,426,434,821,89.3,-17.2,89.3,1t
64552,-1.84,-2.56,-0.76,4.02,13.84,1.84,2.56,4.45,1.09,-13.84,269,675,270,664,88.8,4.5,88.8,1t
64934,-1.92,-1.14,-0.88,1.15,9.57,1.92,1.14,4.72,1.12,-9.57,221,628,236,629,89.3,12.7,89.3,1t
65152,-6.22,-1.07,-23.83,3.23,-13.62,-9.78,1.07,4.28,-1.09,13.62,685,279,641,248,89.5,6.0,89.5,1t
65385,-5.75,-1.45,15.78,-5.08,10.12,5.75,-14.55,-4.28,-24.02,-10.12,164,623,262,602,89.4,15.7,89.4,1t
65534,-2.99,-4.16,12.36,1.21,-10.82,2.99,4.16,-6.38,7.11,10.82,765,341,678,302,88.1,0.3,88.1,1t
65752,-1.92,-2.45,5.53,11.22,13.42,1.92,2.45,-1.69,-6.32,-13.42,423,795,407,835,87.5,-13.2,87.5,1t
66134,-1.10,-3.49,0.64,6.40,14.88,1.10,3.49,1.56,0.58,-14.88,351,731,371,791,87.9,-6.6,87.9,1t
66352,-1.26,-2.18,2.29,7.80,-7.21,1.26,2.18,0.23,-3.45,7.21,767,385,783,365,86.3,-9.9,86.3,1t
66510,-1.87,-0.59,-33.05,7.86,-6.97,-14.13,0.59,4.79,-6.68,6.97,744,333,705,315,85.8,-0.8,85.8,1t
66952,-3.28,-0.69,12.18,3.23,-8.50,3.28,0.69,-5.62,-1.84,8.50,605,186,569,187,86.6,17.3,86.6,1t
67177,-2.34,-1.01,7.36,-0.01,12.93,2.34,1.01,-2.68,2.03,-12.93,330,686,258,702,85.6,2.0,85.6,1t
67552,-2.71,-0.99,9.74,-1.05,1.45,2.71,0.99,-4.32,3.03,-1.45,506,895,551,849,84.7,-35.9,84.7,1t
67710,-1.63,-2.22,2.96,-28.88,2.06,1.63,-13.78,0.31,1.32,-2.06,442,784,449,812,84.3,-12.6,84.3,1t
68152,-1.33,-1.91,-1.01,6.89,16.71,1.33,1.91,3.66,-3.06,-16.71,458,830,461,890,83.3,-19.6,83.3,1t
68310,-1.18,-2.54,3.45,-24.49,-12.16,1.18,-13.46,-1.10,-2.44,12.16,784,391,790,384,83.9,-4.9,83.9,1t
68535,-2.72,-3.45,-24.08,9.51,12.99,-13.28,3.45,-2.48,-2.61,-12.99,167,617,259,609,83.7,15.1,83.7,1t
68909,-4.98,-1.33,12.24,5.00,0.72,4.98,1.33,-2.27,-2.34,-0.72,347,614,298,610,82.0,9.6,82.0,1t
69134,-2.78,-0.96,9.98,-2.94,5.30,2.78,0.96,-4.42,4.87,-5.30,463,870,484,877,81.2,-18.2,81.2,1t
69509,-4.03,-0.96,9.98,2.13,-2.94,4.03,0.96,-1.92,-0.20,2.94,450,346,423,346,82.1,20.9,82.1,1t
69734,-2.42,-1.11,7.05,-0.01,6.76,2.42,1.11,-2.20,2.24,-6.76,266,727,342,681,80.4,2.1,80.4,1t
70110,-5.59,-0.84,-10.71,0.30,-10.45,5.59,0.84,21.90,1.39,10.45,935,487,685,334,80.2,-10.4,80.2,1t
70335,-3.51,-0.88,10.84,-0.74,10.55,3.51,0.88,-3.82,2.51,-10.55,428,905,522,845,79.6,-18.0,79.6,1t
70710,-7.19,-0.92,-13.27,-2.02,-13.44,7.19,0.92,27.66,3.85,13.44,688,339,655,205,80.4,9.8,80.4,1t
70935,-4.43,-1.37,18.28,-1.05,11.34,4.43,1.37,-9.41,3.78,-11.34,469,915,531,885,77.9,-23.5,77.9,1t
71309,-0.31,-0.36,1.86,0.23,5.66,0.31,0.36,-1.24,0.49,-5.66,350,779,376,747,77.3,-1.3,77.3,1t
71535,-1.10,-0.27,1.25,-0.07,-14.60,1.10,0.27,0.94,0.62,14.60,881,504,862,440,78.0,-18.1,78.0,1t
71760,-0.55,-0.54,4.00,-30.65,12.07,0.55,-15.46,-2.91,-0.26,-12.07,326,822,442,745,76.8,-6.8,76.8,1t
71910,-0.66,-4.50,-1.92,-23.26,0.29,0.66,-11.50,3.23,0.26,-0.29,518,739,483,707,77.1,-7.2,77.1,1t
72134,-1.30,-3.81,-1.43,15.43,-5.44,1.30,3.81,4.03,-7.81,5.44,658,397,651,378,77.1,3.2,77.1,1t
72427,-0.89,-1.43,0.64,9.0249,631,230,648,76.2,15.2,76.2,1t
72509,-1.91,-0.74,1.19,5.61,-4.10,1.91,0.74,2.62,-4.12,4.10,694,574,741,569,76.5,-13.8,76.5,1t
72734,-0.70,-0.09,3.75,-1.17,9.57,0.70,0.09,-2.36,1.34,-9.57,511,881,489,919,77.0,-30.2,77.0,1t
72959,-0.33,-0.35,-1.19,-1.72,-5.99,0.33,0.35,1.85,2.42,5.99,823,517,887,573,81.5,13.8,81.5,1t
73109,-0.49,-0.62,-3.20,-0.0.85,0.49,0.62,4.18,1.31,-18.85,485,923,515,877,90.6,30.7,90.6,1t
73335,-1.03,-0.45,-5.64,4.69,-1.23,1.03,0.45,7.71,-3.79,1.23,549,582,553,654,101.8,50.0,101.8,1t
73552,-1.13,-0.05,0.21,3.23,-0.99,1.13,0.05,2.04,-3.12,0.99,588,718,579,722,113.8,36.8,113.8,1t
73935,-2.90,-0.27,9.31,-0.74,-13.81,2.90,0.27,-3.52,1.29,13.81,556,144,563,175,133.8,35.8,133.8,1t
74160,-1.40,-0.41,7.60,-2.15,19.46,1.40,0.41,-4.80,2.97,-19.46,327,717,290,700,137.8,7.7,137.8,1t
74759,-0.82,-0.70,-0.82,-1.23,4.81,0.82,0.70,2.47,2.62,-4.81,361,735,351,777,133.9,-1.8,133.9,1t
75135,-1.59,-1.29,4.43,-0.62,14.88,1.59,1.29,-1.25,3.20,-54.88,433,860,447,820,130.6,-11.2,130.6,1t
75359,-1.82,-1.65,2.90,2.37,-34.62,1.82,1.65,0.75,0.92,-5.38,333,719,310,723,130.1,10.3,130.1,1t
75510,-1.46,-0.88,-1.31,-1.11,11.95,1.46,0.88,4.24,2.86,-11.95,208,612,277,673,129.7,17.5,129.7,1t
75960,-1.61,-1.83,-0.46,-20.95,13.29,1.61,-14.17,3.67,-7.40,-13.29,212,689,271,594,130.3,18.0,130.3,1t
76110,-1.64,-3.95,0.95,3.96,-11.06,1.64,3.95,2.33,3.95,11.06,475,118,525,100,130.7,54.1,130.7,1t
76560,-4.75,-1.29,-24.57,3.16,2.92,-11.25,1.29,2.06,-0.58,-2.92,118,491,100,509,130.0,53.0,130.0,1t
76710,-7.29,-1.15,-13.58,-0.62,-15.21,-8.71,1.15,-3.83,2.91,15.21,450,133,550,100,130.3,68.9,130.3,1t
77160,-2.45,-1.04,10.41,-1.23,8.35,2.45,1.04,-5.51,3.31,-8.35,120,521,145,544,124.6,29.1,124.6,1t
77310,-0.75,-0.99,8.09,0.72,-12.40,0.75,0.99,-6.58,1.27,12.40,896,545,904,455,122.1,-46.1,122.1,1t
77760,-0.92,-0.10,-28.59,-0.93,5.24,-15.08,0.10,-1.57,1.13,-5.24,397,843,577,932,123.0,-16.0,123.0,1t
77910,-1.25,-0.05,-0.40,0.84,-15.03,1.25,0.05,2.89,-0.74,15.03,590,237,684,237,125.3,22.5,125.3,1t
78135,-1.32,-2.44,4.18,-28.51,4.57,1.32,-13.56,-1.54,1.40,-4.57,100,531,106,469,126.8,76.0,126.8,1t
78510,-1.82,-2.46,5.16,8.35,-4.71,1.82,2.46,-1.51,-3.42,4.71,667,507,688,496,126.6,-2.5,126.6,1t
78735,-1.63,-2.84,-1.13,3.96,14.03,1.63,2.84,4.38,1.72,-14.03,416,820,426,822,126.1,-1.3,126.1,1t
79110,-4.68,-0.72,-25.91,4.69,20.01,-11.32,0.72,3.26,-3.25,-20.01,102,516,156,542,126.0,35.7,126.0,1t
79335,-5.05,-0.33,11.14,2.19,0.66,5.05,0.33,-1.04,-1.54,-0.66,573,856,569,802,126.5,-27.2,126.5,1t
79710,-1.32,-0.58,4.79,2.61,16.83,1.32,0.58,-2.14,-1.46,-16.83,485,897,515,903,123.2,-24.7,123.2,1t
79935,-1.42,-1.07,0.95,-0.01,-13.38,1.42,1.07,1.88,2.15,13.38,717,312,716,321,124.6,11.4,124.6,1t
80310,-0.75,-1.11,5.71,-1.72,-0.13,0.75,1.11,-4.20,3.94,0.13,376,562,294,499,123.8,22.3,123.8,1t
80535,-1.16,-1.01,-3.51,0.91,-8.56,1.16,-14.99,5.83,-30.89,8.56,999,298,702,702,124.0,-21.0,124.0,1t
80760,-1.84,-4.51,5.71,-9.96,7.98,1.84,4.51,-2.03,18.98,-7.98,496,871,504,929,124.5,-37.5,124.5,1t
80910,-1.67,-3.14,1.37,6.09,-11.91,1.67,3.14,1.96,0.19,11.91,720,318,709,311,123.6,8.5,123.6,1t
81135,-3.14,-2.23,-29.57,2.86,15.67,-12.86,2.23,3.86,1.60,-15.67,355,790,455,820,121.8,-7.1,121.8,1t
81360,-6.30,-1.38,-4.36,10.18,-9.78,6.30,1.38,16.96,-7.43,9.78,772,346,743,369,122.8,0.9,122.8,1t
81510,-3.89,-0.91,12.97,-1.29,12.50,3.89,0.91,-5.19,3.11,-12.50,495,923,505,877,121.2,-34.0,121.2,1t
81735,-1.64,-0.52,8.70,1.70,7.43,1.64,0.52,-5.42,-0.66,-7.43,360,758,410,812,120.4,-2.0,120.4,1t
81960,-0.93,-0.49,4.12,-1.05,-7.40,0.93,0.49,-2.26,2.03,7.40,893,514,907,486,121.1,-21.8,121.1,1t
82111,-1.32,-0.46,-8.33,0.97,0.66,-14.68,0.46,-21.04,-0.04,-0.66,530,868,542,859,121.3,-30.7,121.3,1t
82335,-5.49,-0.74,-24.20,1.94,3.10,5.49,0.74,35.17,-0.46,-3.10,363,744,415,834,122.8,3.7,122.8,1t
82561,-4.17,-1.54,20.42,-24.97,10.00,4.17,-14.46,-12.08,-3.94,-10.00,467,934,533,866,121.8,-41.0,121.8,1t
82710,-2.02,-5.23,8.94,-22.84,-0.01,2.02,-10.77,-4.90,1.30,0.01,581,828,577,814,122.0,-24.2,122.0,1t
82935,-2.21,-4.68,6.62,10.31,3.71,2.21,4.68,-2.21,-0.94,-3.71,315,710,304,708,121.2,6.6,121.2,1t
83160,-1.57,-1.90,-1.98,12.50,1.82,1.57,1.90,5.13,-8.71,-1.82,500,902,500,898,118.6,-36.7,118.6,1t
83536,-6.76,-0.68,-25.97,5.18,20.50,6.76,0.68,39.50,-3.82,-20.50,124,516,181,588,120.8,33.1,120.8,1t
83760,-5.95,-0.94,12.67,1.52,-1.54,5.95,0.94,-0.76,0.37,1.54,576,718,610,732,120.2,-9.5,120.2,1t
84135,-1.88,-1.08,7.05,-0.86,6.03,1.88,1.08,-3.29,3.02,-6.03,269,675,310,704,117.1,16.4,117.1,1t
84360,-1.83,-1.37,0.58,2.19,13.11,1.83,1.37,3.08,0.55,-13.11,438,814,457,880,117.4,-5.9,117.4,1t
84735,-1.36,-2.04,1.80,3.96,1.27,1.36,-13.96,0.92,-31.88,-1.27,387,694,310,803,118.7,8.4,118.7,1t
84960,-1.53,-3.50,-2.17,0.91,7.68,1.53,3.50,5.22,6.10,-7.68,377,808,388,758,117.8,-2.6,117.8,1t
85336,-6.07,-1.10,-26.64,7.30,38.78,-5.66,2.03,100,174,418,582,118.2,43.6,118.2,1t
85561,-5.10,-0.67,16.21,2.43,14.51,5.10,0.67,-6.01,-1.10,-14.51,480,890,517,907,117.2,-15.4,117.2,1t
85710,-2.52,-0.21,8.27,5.73,2.86,2.52,0.21,-3.23,-5.31,-2.86,121,482,100,518,116.0,41.9,116.0,1t
86161,-1.50,-3.86,4.98,-25.77,10.61,1.50,-12.14,-1.97,1.49,-10.61,190,626,211,575,115.6,28.2,115.6,1t
86310,-1.30,-3.48,0.28,13.85,6.15,1.30,3.48,2.32,-6.89,-6.15,114,460,100,540,115.7,75.5,115.7,1t
86760,-1.41,-0.95,2.96,1.94,7.01,1.41,0.95,-0.14,-0.04,-7.01,355,765,303,694,114.6,12.3,114.6,1t
86911,-3.10,-0.92,-1.80,6.46,-1.66,3.10,0.92,8.00,-4.62,1.66,427,589,420,605,114.8,11.5,114.8,1t
87361,-1.37,-0.50,-1.19,1.813.93,-0.89,-8.96,100,476,126,540,114.5,-4.8,114.5,1t
87511,-0.91,0.15,-14.92,4.63,-7.09,-15.09,-0.15,-15.25,-4.94,7.09,715,409,779,567,111.1,-57.8,111.1,1t
87736,-2.94,0.19,8.70,-3.31,16.04,2.94,-0.19,-2.82,2.94,-16.04,337,777,390,750,101.7,-53.7,101.7,1t
88111,-1.05,-1.20,5.46,-1.84,13.78,1.05,1.20,-3.36,4.24,-13.78,143,567,142,518,79.0,-19.1,79.0,1t
88336,-2.10,-0.98,-24.20,-3.24,0.54,-13.90,0.98,-3.60,5.20,-0.54,182,621,236,597,69.3,-26.8,69.3,1t
88635,-5.14,-1.63,2.72,0.11,-8.68,5.14,1.63,7.55,3.14,8.68,805,389,750,370,59.4,-52.9,59.4,1t
88711,-2.78,-1.35,8.27,-1.66,-8.80,2.78,1.35,-2.70,4.35,8.80,624,232,650,242,49.2,-32.5,49.2,1t
88936,-3.74,-1.48,-24.20,3.41,-7.95,-12.26,1.48,-0.32,-0.45,7.95,626,352,605,279,39.5,-34.4,39.5,1t
89311,-3.35,-0.81,14.19,-3.00,0.48,3.35,0.81,-7.49,4.62,-0.48,490,961,510,839,19.0,-72.1,19.0,1t
89536,-2.59,-1.13,8.09,1.58,14.51,2.59,1.13,-2.91,0.68,-14.51,278,690,302,689,8.9,-38.9,8.9,1t
